Name,Code,Type,SubBasin,City,State,Responsible,Latitude,Longitude,StartDate,EndDate,NYD,MD,N_YWOMD,YWMD
SALINÓPOLIS,00047000,2,32,SALINÓPOLIS,PARÁ,INMET,-0.65,-47.55,1958/01/01,1964/12/31,7,25.0,0,100.0
SALINÓPOLIS,00047002,2,32,SALINÓPOLIS,PARÁ,ANA,-0.6231,-47.3536,1977/12/09,2019/08/31,43,3.5,35,18.6
CURUÇA,00047003,2,32,CURUÇA,PARÁ,ANA,-0.7375,-47.8536,1981/07/01,2019/07/31,39,2.4,29,25.6
PRIMAVERA,00047004,2,32,PRIMAVERA,PARÁ,ANA,-0.9294,-47.0994,1982/02/18,2019/08/31,38,0.0,35,7.9
MARUDA,00047005,2,32,MARAPANIM,PARÁ,ANA,-0.6336,-47.6583,1989/08/21,2019/07/31,31,5.0,20,35.5
SÃO JOÃO DE PIRABAS,00047006,2,32,SÃO JOÃO DE PIRABAS,PARÁ,ANA,-0.7747,-47.1775,1989/08/30,2019/08/31,31,0.4,25,19.4
MAGALHÃES BARATA,00047007,2,31,MAGALHÃES BARATA,PARÁ,ANA,-0.7944,-47.5997,1995/11/17,2019/08/31,25,1.4,20,20.0
SOURE (ILHA DE MARAJÓ),00048000,2,19,SOURE,PARÁ,INMET,-0.7278,-48.5158,1961/01/01,1998/12/31,38,3.2,26,31.6
CÂMARA,00048002,2,19,CACHOEIRA DO ARARI,PARÁ,IDESP,-0.9,-48.6333,1971/09/21,1982/12/31,12,0.0,9,25.0
FAZENDA TAPERA (MARAJÓ),00048003,2,19,SOURE,PARÁ,IDESP,-0.55,-48.7833,1971/01/01,1982/12/31,12,9.6,8,33.3
FAZENDA LIVRAMENTO,00048004,2,19,SOURE,PARÁ,IDESP,-0.3333,-48.5167,1974/05/01,1982/12/31,9,0.0,8,11.1
MANDUBE,00048005,2,19,CHAVES,PARÁ,IDESP,-0.2,-48.9167,1977/06/01,1982/05/31,6,11.9,0,100.0
VIGIA,00048006,2,31,VIGIA,PARÁ,ANA,-0.8681,-48.1103,1982/02/11,2019/07/31,38,0.4,32,15.8
ANAJÁS (ILHA DO MARAJÓ),00049000,2,19,ANAJÁS,PARÁ,IDESP,-0.9833,-49.95,1968/07/17,1981/07/31,14,23.6,4,71.4
SANTA CRUZ DO ARARI (I. MARAJÓ),00049001,2,19,SANTA CRUZ DO ARARI,PARÁ,IDESP,-0.6167,-49.1667,1968/05/30,2003/12/31,36,61.4,10,72.2
TUYUYU,00049002,2,19,CACHOEIRA DO ARARI,PARÁ,IDESP,-0.8167,-49.15,1972/04/21,1981/08/31,10,17.8,4,60.0
FAZENDA SÃO SEBASTIÃO,00049003,2,19,PONTA DE PEDRAS,PARÁ,IDESP,-0.8333,-49.7667,1973/02/13,1982/11/30,10,0.2,6,40.0
ARAPIXI,00049004,2,19,CHAVES,PARÁ,IDESP,-0.2167,-49.4667,1972/05/01,1982/12/31,11,10.1,8,27.3
FAZENDA CAJUEIRO (MARAJÓ),00049006,2,19,CHAVES,PARÁ,IDESP,-0.25,-49.2667,1974/01/24,1982/12/31,9,13.1,2,77.8
SANTA LUZIA,00049007,2,19,CHAVES,PARÁ,IDESP,-0.4,-49.9,1977/06/03,1981/12/31,5,0.8,2,60.0
FAZENDA GLÓRIA,00049008,2,19,SANTA CRUZ DO ARARI,PARÁ,IDESP,-0.5333,-49.4,1978/04/02,1982/02/28,5,4.3,2,60.0
ANAJÁS,00049009,2,19,ANAJÁS,PARÁ,ANA,-0.9853,-49.9394,1999/09/02,2019/09/30,21,2.1,15,28.6
CHAVES,00049010,2,19,CHAVES,PARÁ,ANA,-0.1656,-49.9786,1999/09/02,2019/09/30,21,0.9,16,23.8
SANTA CRUZ DO ARARI,00049011,2,19,SANTA CRUZ DO ARARI,PARÁ,ANA,-1.0158,-48.9597,1999/09/02,2019/09/30,21,0.7,15,28.6
CACHOEIRA DO ARARI,00049012,2,19,CACHOEIRA DO ARARI,PARÁ,ANA,-0.6653,-49.1711,2005/09/03,2019/09/30,15,8.9,10,33.3
CHAVES,00050000,2,19,CHAVES,PARÁ,IDESP,-0.15,-50.0,1972/03/24,1982/12/31,11,0.0,9,18.2
AFUÁ,00050001,2,19,AFUÁ,PARÁ,IDESP,-0.1,-50.3833,1972/03/27,1982/12/31,11,1.1,9,18.2
JUPATI,00050002,2,19,AFUÁ,PARÁ,IDESP,-0.8,-50.7,1979/07/16,1980/05/31,2,0.0,0,100.0
AFUÁ,00050003,2,19,AFUÁ,PARÁ,ANA,-0.1603,-50.3894,2004/10/09,2019/09/30,16,0.5,13,18.8
MACAPA,00051001,2,19,MACAPÁ,AMAPÁ,ICOMI,-0.05,-51.0667,1968/01/01,1980/12/31,13,1.0,11,15.4
NAVIO,00051002,2,19,MAZAGÃO,AMAPÁ,ANA,-0.3992,-51.4203,1980/08/27,2019/09/30,40,6.1,12,70.0
PANCADA,00051003,2,19,MAZAGÃO,AMAPÁ,ANA,-0.1833,-51.8,1982/07/21,1991/09/30,10,0.6,7,30.0
VILA DO MARACÁ,00051004,2,19,MAZAGÃO,AMAPÁ,ANA,-0.1806,-51.7358,1997/05/19,2019/04/30,23,4.6,12,47.8
BOM JARDIM,00051005,2,19,GURUPÁ,PARÁ,ANA,-0.7947,-51.6239,1997/07/01,2019/09/30,23,0.0,21,8.7
SÃO FRANCISCO,00052000,2,19,LARANJAL DO JARÍ,AMAPÁ,ANA,-0.5711,-52.575,1968/07/06,2016/02/29,49,4.4,31,36.7
CARECURU,00052001,2,19,MAZAGÃO,AMAPÁ,ANA,-0.1333,-52.9333,1977/12/22,1989/05/31,13,0.0,10,23.1
IRATAPURU,00052002,2,19,MAZAGÃO,AMAPÁ,ANA,-0.6,-52.6,1980/08/28,1984/02/29,5,0.0,3,40.0
SÃO PEDRO,00052003,2,19,MAZAGÃO,AMAPÁ,ANA,-0.4567,-52.0775,1997/05/20,2019/04/30,23,0.4,18,21.7
FAZENDA PAQUIRA,00053000,2,18,ALMEIRIM,PARÁ,ANA,-0.4167,-53.7,1972/12/20,1989/05/31,18,0.0,15,16.7
PORTO PUXURI,00053001,2,18,ALMEIRIM,PARÁ,ANA,-0.2139,-53.8469,2011/04/03,2019/08/31,9,4.1,4,55.6
LAJEIRO,00054000,2,18,MONTE ALEGRE,PARÁ,ANA,-0.9667,-54.4333,1980/06/21,1983/05/06,4,2.5,2,50.0
ALDEIA PURURÉ,00054002,2,18,ALMEIRIM,PARÁ,ANA,0.5861,-54.2086,2010/11/11,2012/09/30,3,24.6,1,66.7
ALDEIA WAI-WAI,00057000,2,16,ORIXIMINÁ,PARÁ,ANA,-0.6953,-57.9742,1987/01/01,2013/02/28,27,20.4,12,55.6
BASE ALALAÚ,00060000,2,14,RORAINÓPOLIS,RORAIMA,ANA,-0.8558,-60.5219,1977/05/31,2019/07/31,43,29.5,15,65.1
FAZENDA SÃO LUCAS,00060001,2,14,SÃO LUIZ,RORAIMA,ANA,-0.2275,-60.6908,1989/01/31,2019/04/30,31,4.8,20,35.5
SANTA MARIA DO BOIAÇU,00061000,2,14,RORAINÓPOLIS,RORAIMA,ANA,-0.5067,-61.7858,1972/06/10,2019/08/31,48,0.9,42,12.5
TERRA PRETA,00061001,2,14,CARACARAÍ,RORAIMA,ANA,-0.8731,-61.9317,1989/04/25,2019/08/31,31,0.4,24,22.6
BARCELOS,00062000,2,14,BARCELOS,AMAZONAS,INMET,-0.9711,-62.9286,1961/01/01,1998/08/31,38,36.8,21,44.7
JALAUACA,00062001,2,14,BARCELOS,AMAZONAS,ANA,-0.3011,-62.7622,1980/08/24,1997/02/28,18,0.6,15,16.7
BARCELOS,00062002,2,14,BARCELOS,AMAZONAS,ANA,-0.9658,-62.9311,2015/11/02,2019/08/31,5,0.1,2,60.0
CUMARU,00063000,2,14,BARCELOS,AMAZONAS,ANA,-0.5983,-63.3978,1977/12/21,2019/09/30,43,2.3,32,25.6
SAMAUMA,00063001,2,14,BARCELOS,AMAZONAS,ANA,-0.3672,-62.7753,1997/09/25,2016/04/30,20,0.9,16,20.0
SANTA MARIA DO URUBAXI,00064001,2,14,BARCELOS,AMAZONAS,ANA,-0.71,-64.7961,1999/10/02,2000/11/30,2,4.0,0,100.0
ACARIQUARA,00064002,2,14,SANTA IZABEL DO RIO,AMAZONAS,ANA,-0.5919,-64.8256,2005/10/07,2019/02/11,15,0.1,9,40.0
SANTA ISABEL DO RIO NEGRO,00065000,2,14,SANTA IZABEL DO RIO,AMAZONAS,INMET,-0.42,-65.98,1961/12/01,1980/06/30,20,26.5,10,50.0
TAPURUQUARA,00065001,2,14,SANTA IZABEL DO RIO,AMAZONAS,ANA,-0.4203,-65.0153,1982/08/05,2019/09/30,38,5.0,31,18.4
BACURI,00065002,2,14,SANTA IZABEL DO RIO,AMAZONAS,ANA,-0.5406,-65.2122,2005/09/30,2019/09/30,15,2.2,11,26.7
LIVRAMENTO,00066000,2,14,SÃO GABRIEL DA CACH,AMAZONAS,ANA,-0.2889,-66.1533,1977/12/19,2019/09/30,43,1.4,31,27.9
BOM JESUS DO MARIE,00066001,2,14,SÃO GABRIEL DA CACH,AMAZONAS,ANA,-0.65,-66.75,1982/06/01,1982/09/30,1,21.3,0,100.0
CURICURIARI,00066002,2,14,SÃO GABRIEL DA CACH,AMAZONAS,ANA,-0.2017,-66.8033,2005/10/04,2019/09/30,15,0.1,11,26.7
SÃO GABRIEL DA CACHOEIRA,00067000,2,14,SÃO GABRIEL DA CACH,AMAZONAS,INMET,-0.1253,-67.0611,1961/01/01,2018/07/31,58,40.4,25,56.9
TUMBIRA,00067002,2,14,SÃO GABRIEL DA CACH,AMAZONAS,ANA,-0.3444,-67.5358,1999/12/26,2019/09/30,21,0.4,19,9.5
CURUPURU,00144000,2,32,CURURUPU,MARANHÃO,SUDENE,-1.83333,-44.8833,1965/11/01,1986/09/30,22,43.8,9,59.1
ILHA SÃO JOÃO DO FAROL,00144001,2,32,BACURI,MARANHÃO,INMET,-1.3,-44.8833,1982/08/01,1982/11/30,1,0.0,0,100.0
CURURUPU,00144002,2,32,CURURUPU,MARANHÃO,ANA,-1.8261,-44.8678,1986/10/29,2019/09/30,34,8.5,18,47.1
CÂNDIDO MENDES,00145000,2,32,CÂNDIDO MENDES,MARANHÃO,SUDENE,-1.4667,-45.7167,1965/11/01,1977/12/31,13,2.1,11,15.4
GODOFREDO VIANA,00145001,2,32,GODOFREDO VIANA,MARANHÃO,SUDENE,-1.4,-45.7833,1965/11/01,1982/04/30,18,0.5,15,16.7
LUÍS DOMINGUES,00145002,2,32,LUÍS DOMINGUES,MARANHÃO,SUDENE,-1.3,-45.8667,1965/11/01,1989/06/30,25,22.2,8,68.0
SERRANO,00145003,2,32,CURURUPU,MARANHÃO,SUDENE,-1.85,-45.0667,1965/11/01,1987/06/30,23,15.4,15,34.8
TURIAÇU,00145004,2,32,TURIAÇU,MARANHÃO,INMET,-1.6678,-45.3683,1949/01/01,1998/12/31,50,26.3,35,30.0
TURIAÇU,00145005,2,32,TURIAÇU,MARANHÃO,SUDENE,-1.66667,-45.3667,1965/11/01,1985/12/31,21,1.7,19,9.5
CÂNDIDO MENDES,00145006,2,32,CÂNDIDO MENDES,MARANHÃO,ANA,-1.4558,-45.7281,1986/06/17,2019/09/30,34,0.0,32,5.9
TRACUATEUA,00146000,2,32,BRAGANÇA,PARÁ,INMET,-1.0636,-46.8653,1973/10/01,1998/12/16,26,4.3,17,34.6
BRAGANÇA,00146001,2,32,BRAGANÇA,PARÁ,ANA,-1.05,-46.7833,1966/01/01,1983/02/12,18,18.0,12,33.3
NOVA MOCAJUBA,00146002,2,32,BRAGANÇA,PARÁ,ANA,-1.25,-46.8667,1965/07/20,1972/01/31,8,0.1,6,25.0
SÃO JOÃO DO MURUJA,00146003,2,32,CARUTAPERA,MARANHÃO,SUDENE,-1.6,-46.2,1965/11/01,1974/10/31,10,12.1,6,40.0
CARUTAPERA,00146004,2,32,CARUTAPERA,MARANHÃO,SUDENE,-1.2167,-46.0167,1965/11/01,1987/05/31,23,7.3,16,30.4
TARARUA - PONTE,00146005,2,32,VISEU,PARÁ,ANA,-1.7331,-46.5989,1972/06/30,2019/09/30,48,3.4,33,31.2
CAMIRANGA,00146006,2,32,VISEU,PARÁ,ANA,-1.8,-46.2667,1972/06/08,1975/12/31,4,0.0,3,25.0
ALTO BONITO,00146008,2,32,VISEU,PARÁ,ANA,-1.8175,-46.3439,1976/01/23,2019/09/30,44,2.3,38,13.6
VISEU,00146009,2,32,VISEU,PARÁ,ANA,-1.2314,-46.1878,1980/08/29,2019/07/31,40,0.6,35,12.5
EMBORAI,00146010,2,32,AUGUSTO CORRÊA,PARÁ,ANA,-1.2917,-46.5836,1984/05/24,2019/07/31,36,0.5,25,30.6
SANTA LUZIA DO PARÁ,00146011,2,32,SANTA LUZIA DO PARÁ,PARÁ,ANA,-1.5161,-46.9061,1994/08/19,2019/09/30,26,3.7,17,34.6
JAPIIM,00146012,2,32,VISEU,PARÁ,ANA,-1.7989,-46.6967,2004/09/23,2019/09/30,16,2.8,12,25.0
NOVA MOCAJUBA,00146013,2,32,BRAGANÇA,PARÁ,ANA,-1.2728,-46.8894,2009/05/01,2019/07/31,11,0.0,9,18.2
OUREM,00147000,2,32,OURÉM,PARÁ,ANA,-1.55,-47.1167,1965/06/16,2003/06/30,39,82.0,6,84.6
MACAPAZINHO,00147001,2,32,CASTANHAL,PARÁ,ANA,-1.36667,-47.8833,1965/06/17,2006/10/31,42,83.9,5,88.1
CAPANEMA,00147002,2,32,CAPANEMA,PARÁ,ANA,-1.2036,-47.1781,1966/03/18,2019/08/31,54,0.5,46,14.8
PEIXE BOI,00147003,2,32,PEIXE-BOI,PARÁ,ANA,-1.2167,-47.3333,1965/10/01,1972/01/26,8,9.2,3,62.5
BOA VISTA,00147004,2,32,CASTANHAL,PARÁ,ANA,-1.35,-47.9667,1968/07/01,1972/01/26,5,0.0,3,40.0
BOM JARDIM,00147006,2,31,OURÉM,PARÁ,ANA,-1.5667,-47.1,1972/06/25,1989/02/28,18,0.0,16,11.1
CASTANHAL,00147007,2,32,CASTANHAL,PARÁ,ANA,-1.2975,-47.9394,1972/07/01,2019/07/31,48,3.3,36,25.0
SÃO DOMINGOS DO CAPIM,00147008,2,31,SÃO DOMINGOS DO CAP,PARÁ,ANA,-1.6775,-47.77,1975/10/04,2019/06/30,45,5.4,29,35.6
IGARAPÉ-AÇU,00147010,2,32,IGARAPÉ-AÇU,PARÁ,ANA,-1.1325,-47.6283,1980/08/31,2019/08/31,40,1.6,34,15.0
COLÔNIA SANTO ANTÔNIO,00147011,2,31,IRITUIA,PARÁ,ANA,-1.655,-47.4914,1982/06/11,2019/05/31,38,0.5,35,7.9
CASTANHAL,00147012,2,32,CASTANHAL,PARÁ,EMBRAPA/IPAGRO,-1.2833,-47.9167,1974/01/01,1979/12/31,6,0.0,5,16.7
CAPITÃO POÇO,00147013,2,31,CAPITÃO POÇO,PARÁ,EMBRAPA/IPAGRO,-1.7667,-47.0667,1980/01/01,1981/12/31,2,0.0,2,0.0
ESCOLA AGROTÉCNICA,00147014,2,32,CASTANHAL,PARÁ,EMBRAPA/IPAGRO,-1.2833,-47.9167,1980/01/01,1989/03/31,10,12.7,6,40.0
VILA SANTA LUZIA,00147015,2,31,CAPITÃO POÇO,PARÁ,EMBRAPA/IPAGRO,-1.7667,-47.0667,1980/01/01,1988/12/31,9,0.0,8,11.1
OUREM,00147016,2,31,OURÉM,PARÁ,ANA,-1.5517,-47.1172,1988/01/01,2019/08/31,32,2.7,26,18.8
TERRA ALTA,00147017,2,32,TERRA ALTA,PARÁ,ANA,-1.0386,-47.9133,1991/01/01,2019/07/31,29,0.7,27,6.9
SANTA MARIA DO PARÁ,00147018,2,32,SANTA MARIA DO PARÁ,PARÁ,ANA,-1.3569,-47.5742,1990/02/01,2019/05/31,30,4.8,17,43.3
NOVA TIMBOTEUA,00147019,2,32,NOVA TIMBOTEUA,PARÁ,ANA,-1.21111,-47.3864,1995/11/23,2019/08/31,25,0.5,22,12.0
BELÉM,00148001,2,31,BELÉM,PARÁ,EMBRAPA/IPAGRO,-1.45,-48.5,1961/01/01,2014/10/21,54,46.6,24,55.6
BELÉM,00148002,2,31,BELÉM,PARÁ,INMET,-1.435,-48.4378,1949/04/01,2019/06/30,71,3.6,59,16.9
SANTA ISABEL DO PARÁ,00148003,2,31,SANTA ISABEL DO PAR,PARÁ,ANA,-1.2964,-48.1708,1972/06/01,2019/07/31,48,1.0,28,41.7
BELÉM (VAL DE CÃES - SBBE),00148004,2,31,BELÉM,PARÁ,DEPV,-1.3833,-48.4667,1983/01/01,1985/12/31,3,0.1,2,33.3
SANTANA DO ARARI,00148006,2,19,PONTA DE PEDRAS,PARÁ,IDESP,-1.2,-48.7667,1971/02/20,1982/12/31,12,1.6,7,41.7
CARAPARU (PORTO DE MINAS),00148007,2,31,SANTA ISABEL DO PAR,PARÁ,ANA,-1.35,-48.1333,1966/03/16,1982/12/31,17,59.8,5,70.6
PONTA DE PEDRAS,00148008,2,19,PONTA DE PEDRAS,PARÁ,IDESP,-1.35,-48.7833,1977/01/01,1981/12/31,5,0.0,5,0.0
ACARÁ,00148009,2,31,ACARÁ,PARÁ,ANA,-1.9611,-48.2064,1980/08/17,2019/04/30,40,1.2,31,22.5
ABAETETUBA,00148010,2,31,ABAETETUBA,PARÁ,ANA,-1.7503,-48.8669,1980/10/18,2019/08/31,40,0.7,30,25.0
VILA DO CONDE,00148011,2,31,BARCARENA,PARÁ,ANA,-1.5656,-48.7669,1980/12/08,2019/08/31,40,4.4,22,45.0
MOSQUEIRO,00148012,2,31,BELÉM,PARÁ,ANA,-1.0942,-48.3986,1982/04/23,2019/07/31,38,1.4,30,21.1
CPATU,00148013,2,31,BELÉM,PARÁ,EMBRAPA/IPAGRO,-1.4667,-48.45,1980/01/01,1988/12/31,9,0.0,8,11.1
BUJARU,00148017,2,31,BUJARU,PARÁ,ANA,-1.5211,-48.0461,1994/11/25,2019/06/30,26,0.0,24,7.7
IGARAPÉ-MIRI,00148018,2,31,IGARAPÉ-MIRI,PARÁ,ANA,-1.9706,-48.9339,1995/07/15,2019/06/30,25,5.9,15,40.0
BELÉM 4º DISTRITO NAVAL,00148019,2,31,BELÉM,PARÁ,ANA,-1.4647,-48.5044,2006/11/01,2010/01/31,5,30.6,1,80.0
MUANÁ,00149000,2,19,MUANÁ,PARÁ,IDESP,-1.5,-49.2167,1972/04/02,2006/10/31,35,65.6,6,82.9
CURRALINHO,00149001,2,19,CURRALINHO,PARÁ,IDESP,-1.8167,-49.8167,1974/01/01,1982/12/31,9,0.3,7,22.2
SÃO SEBASTIÃO DA BOA VISTA,00149002,2,19,SÃO SEBASTIÃO DA BO,PARÁ,IDESP,-1.7167,-49.5167,1977/01/01,1982/12/31,6,0.0,6,0.0
OEIRAS DO PARÁ,00149003,2,19,OEIRAS DO PARÁ,PARÁ,ANA,-2.0019,-49.8636,1982/02/12,2019/10/31,38,0.6,24,36.8
JOANA COELI,00149004,2,19,CAMETÁ,PARÁ,ANA,-1.8975,-49.3817,1994/12/15,2019/06/30,26,1.1,13,50.0
SÃO SEBASTIÃO DA BOA VISTA,00149005,2,19,SÃO SEBASTIÃO DA BO,PARÁ,ANA,-1.7167,-49.5167,2004/11/13,2019/10/31,16,1.7,11,31.2
MUANÁ,00149006,2,19,MUANÁ,PARÁ,ANA,-1.5364,-49.2322,2004/05/01,2019/09/30,16,12.0,10,37.5
BREVES,00150001,2,19,BREVES,PARÁ,INMET,-1.68,-50.4781,1968/09/28,1998/11/30,31,22.8,7,77.4
SÃO MIGUEL DOS MACACOS,00150002,2,19,BREVES,PARÁ,IDESP,-1.1833,-50.4667,1970/05/01,1982/12/31,13,0.8,10,23.1
ANTÔNIO LEMOS,00150003,2,19,BREVES,PARÁ,ANA,-1.7917,-50.4347,1985/01/30,2019/09/30,35,4.9,24,31.4
JARILÂNDIA,00151000,2,19,ALENQUER,PARÁ,ANA,-1.1233,-51.9964,1980/08/19,2019/09/30,40,0.7,31,22.5
ACAMPAMENTO IBDF,00151001,2,19,PORTEL,PARÁ,ANA,-1.7922,-51.4344,1980/06/20,2019/09/30,40,1.3,35,12.5
AREIAS,00151002,2,19,MELGAÇO,PARÁ,ANA,-1.2131,-51.2622,1982/03/16,2019/09/30,38,2.4,28,26.3
CARRAZEDO,00151003,2,19,GURUPÁ,PARÁ,ANA,-1.5825,-51.9178,1989/08/27,2019/09/30,31,4.4,18,41.9
PORTO DE MOZ,00152000,2,18,PORTO DE MOZ,PARÁ,ANA,-1.7531,-52.24,1968/07/01,1976/11/30,9,3.5,4,55.6
PORTO DE MOZ,00152001,2,18,PORTO DE MOZ,PARÁ,INMET,-1.7333,-52.2333,1963/05/01,2014/06/30,52,6.6,31,40.4
PORTO DE MOZ,00152003,2,18,PORTO DE MOZ,PARÁ,DEPV,-1.75,-52.2333,1975/03/01,1998/11/30,24,46.5,0,100.0
RECREIO,00152004,2,18,ALMEIRIM,PARÁ,ANA,-1.2833,-52.9667,1982/03/15,1984/12/31,3,3.4,1,66.7
ALMEIRIM,00152005,2,18,ALMEIRIM,PARÁ,ANA,-1.5264,-52.5783,1982/03/23,2019/09/30,38,1.7,24,36.8
FAZENDA BELA VISTA,00152006,2,18,ALMEIRIM,PARÁ,ANA,-1.0819,-53.1575,1985/04/17,2019/09/30,35,7.6,21,40.0
PRAINHA,00153000,2,18,PRAINHA,PARÁ,ANA,-1.8011,-53.48,1980/10/18,2019/04/30,40,0.8,33,17.5
ARAPARI,00154000,2,18,MONTE ALEGRE,PARÁ,ANA,-1.7736,-54.3972,1972/05/30,2019/08/31,48,2.7,35,27.1
BOCA DO INFERNO,00154001,2,17,ALENQUER,PARÁ,ANA,-1.5,-54.8714,1975/06/09,2019/08/31,45,1.7,38,15.6
ALENQUER,00154002,2,17,ALENQUER,PARÁ,EMBRAPA/IPAGRO,-1.9333,-54.7667,1981/01/01,1984/12/31,4,0.0,4,0.0
ALENQUER,00154003,2,17,ALENQUER,PARÁ,ANA,-1.9428,-54.7392,1989/04/28,2019/04/30,31,3.5,20,35.5
ORIXIMINÁ,00155000,2,16,ORIXIMINÁ,PARÁ,ANA,-1.7597,-55.8614,1968/08/16,2019/08/31,52,5.5,32,38.5
ÓBIDOS,00155001,2,17,ÓBIDOS,PARÁ,INMET,-1.9014,-55.5186,1928/01/01,2002/07/31,75,22.3,41,45.3
VILA CURUA,00155002,2,17,ALENQUER,PARÁ,ANA,-1.88806,-55.1156,1994/05/02,2019/04/30,26,0.7,21,19.2
VISTA ALEGRE - CONJ 1,00156000,2,16,ORIXIMINÁ,PARÁ,ANA,-1.1014,-56.04,1977/10/10,2019/08/31,43,14.1,27,37.2
PORTO TROMBETAS,00156001,2,16,ORIXIMINÁ,PARÁ,CHM,-1.4583,-56.3833,1987/01/01,2007/07/31,21,73.3,4,81.0
PORTO TROMBETAS,00156002,2,16,ORIXIMINÁ,PARÁ,ANA,-1.4556,-56.4025,1999/08/20,2019/08/31,21,2.6,13,38.1
CACH DA PORTEIRA - CONJ 1,00157000,2,16,ORIXIMINÁ,PARÁ,ANA,-1.0875,-57.0469,1975/07/07,2019/08/31,45,9.5,28,37.8
MINERAÇÃO CAIMA,00157001,2,16,NHAMUNDÁ,AMAZONAS,ANA,-1.4378,-57.8275,1981/07/06,2019/08/31,39,44.8,13,66.7
PORTUGUÊS,00157002,2,16,FARO,PARÁ,ANA,-1.8683,-57.0506,1989/03/03,2019/08/31,31,5.9,14,54.8
BASE DA SIDERAMA,00158000,2,16,URUCARÁ,AMAZONAS,ANA,-1.6406,-58.5189,1974/07/25,2001/06/30,28,42.6,8,71.4
KATUEMA,00158001,2,16,URUCARÁ,AMAZONAS,ANA,-1.0333,-58.6833,1979/01/01,1982/12/31,4,41.9,0,100.0
RANCHO DO BARROSO,00158002,2,16,URUCARÁ,AMAZONAS,ANA,-1.6678,-58.5381,1993/02/27,1998/07/30,6,5.3,0,100.0
SÃO JOSÉ,00158003,2,16,URUCARÁ,AMAZONAS,ANA,-1.9328,-58.2558,2000/01/01,2019/08/31,20,1.7,15,25.0
BASE SIDERAMA - JUSANTE,00158004,2,16,URUCARÁ,AMAZONAS,ANA,-1.6833,-58.5333,2001/01/01,2019/08/31,19,6.0,11,42.1
BALBINA P-8 (UHE BALBINA),00159000,2,16,PRESIDENTE FIGUEIRE,AMAZONAS,ANA,-1.9381,-59.4833,1978/03/29,2016/11/30,39,35.1,10,74.4
POSTO ABONARI - FUNAI,00160000,2,16,PRESIDENTE FIGUEIRE,AMAZONAS,ANA,-1.2989,-60.3997,1977/05/29,2019/04/30,43,14.8,22,48.8
MOURA,00161000,2,14,BARCELOS,AMAZONAS,INMET,-1.45,-61.6333,1930/07/01,1946/11/30,17,46.6,2,88.2
AIRÃO,00161001,2,14,NOVO AIRÃO,AMAZONAS,ANA,-1.95,-61.3667,1975/12/01,1979/01/31,5,1.1,3,40.0
MOURA,00161002,2,14,BARCELOS,AMAZONAS,ANA,-1.4589,-61.6331,1979/01/21,2019/08/31,41,1.3,35,14.6
DEMOCRACIA,00161003,2,14,NOVO AIRÃO,AMAZONAS,ANA,-1.7333,-61.9167,1981/03/19,1983/01/31,3,1.6,1,66.7
SERINGALZINHO,00161004,2,14,NOVO AIRÃO,AMAZONAS,ANA,-1.8325,-61.5983,2005/09/17,2019/08/31,15,8.8,7,53.3
CARVOEIRO,00162000,2,14,BARCELOS,AMAZONAS,ANA,-1.3944,-61.9792,1977/12/24,2019/08/31,43,0.8,37,14.0
SÃO FRANCISCO,00162001,2,14,NOVO AIRÃO,AMAZONAS,ANA,-1.9833,-62.0667,1982/05/21,1984/07/31,3,16.9,0,100.0
UMANAPANA,00162002,2,14,BARCELOS,AMAZONAS,ANA,-1.8872,-62.4367,1982/01/01,2019/08/31,38,4.7,31,18.4
VISTA ALEGRE DO UNINI,00162003,2,14,BARCELOS,AMAZONAS,ANA,-1.7108,-62.8236,2003/09/28,2019/08/31,17,0.7,12,29.4
SÃO LAZARO,00163001,2,14,BARCELOS,AMAZONAS,ANA,-1.6922,-63.7869,1999/09/20,2003/03/31,5,1.7,2,60.0
MARAÃ,00165000,2,12,MARAÃ,AMAZONAS,ANA,-1.8611,-65.5906,1977/12/25,2019/10/31,43,1.6,29,32.6
MARAÃ (CELETRA),00165001,2,12,MARAÃ,AMAZONAS,OUTRAS,-1.0,-65.0,1979/10/01,1982/03/31,4,33.5,0,100.0
ACANAUI,00166000,2,12,JAPURÁ,AMAZONAS,ANA,-1.8211,-66.6,1973/07/09,2019/10/31,47,0.3,42,10.6
ROÇADO,00166001,2,14,SANTA IZABEL DO RIO,AMAZONAS,ANA,-1.27,-66.1908,2000/07/01,2019/02/10,20,3.5,13,35.0
MACUERU,00167000,2,12,JAPURÁ,AMAZONAS,ANA,-1.6333,-67.6667,1977/12/29,2001/03/31,25,11.6,13,48.0
MAMORI,00167001,2,12,JAPURÁ,AMAZONAS,ANA,-1.7319,-67.5786,2000/01/01,2019/10/31,20,9.7,2,90.0
MANGUEIRA,00168000,2,12,JAPURÁ,AMAZONAS,ANA,-1.7667,-68.8333,1982/06/29,1989/06/30,8,15.0,1,87.5
VILA BITTENCOURT,00169000,2,12,JAPURÁ,AMAZONAS,ANA,-1.3947,-69.4283,1977/12/28,2019/10/31,43,5.4,25,41.9
VILA BITTENCOURT (CELETRA),00169001,2,12,JAPURÁ,AMAZONAS,OUTRAS,-1.0,-69.0,1979/11/01,2005/12/31,27,92.7,1,96.3
MANGUEIRA,00169002,2,12,JAPURÁ,AMAZONAS,ANA,-1.7333,-69.1167,1989/07/21,2019/10/31,31,19.4,12,61.3
ITAREMA,00239001,2,35,ITAREMA,CEARÁ,FUNCEME-CE,-2.9167,-39.9167,1988/02/01,2020/02/29,33,1.3,29,12.1
CAMOCIM,00240000,2,35,CAMOCIM,CEARÁ,DNOCS,-2.9,-40.8333,1910/11/01,2000/04/30,91,26.3,56,38.5
ACARAÚ,00240001,2,35,ACARAÚ,CEARÁ,DNOCS,-2.8833,-40.1167,1912/01/01,2009/02/28,98,13.5,75,23.5
CAMOCIM,00240002,2,35,CAMOCIM,CEARÁ,FUNCEME-CE,-2.9167,-40.8333,1974/01/01,2020/02/29,47,1.6,45,4.3
GURIU,00240004,2,35,CAMOCIM,CEARÁ,FUNCEME-CE,-2.85,-40.5833,1962/01/01,2020/02/29,59,36.9,32,45.8
ACARAÚ,00240005,2,35,ACARAÚ,CEARÁ,INMET,-2.8833,-40.1333,1961/01/01,1985/12/31,25,57.3,5,80.0
JIJOCA,00240006,2,35,ACARAÚ,CEARÁ,SUDENE,-2.8167,-40.4167,1962/01/01,1988/05/31,27,2.2,24,11.1
ACARAÚ,00240007,2,35,ACARAÚ,CEARÁ,FUNCEME-CE,-2.8833,-40.1167,1974/01/01,2020/02/29,47,0.0,46,2.1
FAZENDA PAPAGAIO,00240008,2,35,ACARAÚ,CEARÁ,FUNCEME-CE,-2.8333,-40.22,1998/12/01,2007/12/01,10,42.8,5,50.0
ARANAÚ,00240009,2,35,ACARAÚ,CEARÁ,FUNCEME-CE,-2.8167,-40.2167,1974/03/01,2020/02/29,47,3.5,42,10.6
PRATA,00240010,2,35,BELA CRUZ,CEARÁ,FUNCEME-CE,-2.9333,-40.2667,2000/10/01,2020/02/29,21,0.0,19,9.5
JATOBÁ,00240011,2,35,CAMOCIM,CEARÁ,FUNCEME-CE,-2.9667,-40.9333,2000/11/01,2019/05/31,20,48.5,7,65.0
CRUZ,00240012,2,35,CRUZ,CEARÁ,FUNCEME-CE,-2.9333,-40.1833,1988/02/01,2020/02/29,33,1.3,30,9.1
JIJOCA DE JERICOACOARA,00240013,2,35,JIJOCA DE JERICOACO,CEARÁ,FUNCEME-CE,-2.9167,-40.4833,1983/01/01,2020/02/29,38,31.6,21,44.7
JERICOACOARA,00240014,2,35,JIJOCA DE JERICOACO,CEARÁ,FUNCEME-CE,-2.7833,-40.5167,2000/12/01,2020/02/29,21,9.4,15,28.6
PESQUEIRO,00240015,2,35,CAMOCIM,CEARÁ,ANA,-2.9967,-40.5703,2004/10/27,2019/12/31,16,0.0,15,6.2
LUIZ CORREIA,00241000,2,34,LUÍS CORREIA,PIAUÍ,DNOCS,-2.8833,-41.6667,1912/06/01,2001/05/31,90,6.0,76,15.6
PARNAÍBA,00241001,2,34,PARNAÍBA,PIAUÍ,INMET,-2.9167,-41.7833,1964/03/01,1985/12/31,22,4.4,13,40.9
PARNAIBA,00241002,2,34,PARNAÍBA,PIAUÍ,SUDENE,-2.9167,-41.7833,1964/03/01,2002/03/31,39,7.6,32,17.9
BARROQUINHA,00241003,2,35,CAMOCIM,CEARÁ,SUDENE,-2.9833,-41.0833,1962/01/01,1991/04/30,30,0.8,26,13.3
BITUPITA,00241004,2,35,BARROQUINHA,CEARÁ,FUNCEME-CE,-2.9167,-41.3,1998/06/01,2008/12/01,11,95.9,0,100.0
FAZENDA 2 IRMÃOS,00241011,2,34,CAJUEIRO DA PRAIA,PIAUÍ,SEMARH-PI,-2.9372,-41.3475,2015/06/01,2016/10/31,2,0.0,0,100.0
BARREIRINHAS,00242000,2,33,BARREIRINHAS,MARANHÃO,SUDENE,-2.75,-42.8333,1965/10/01,1991/12/31,27,2.6,22,18.5
TUTÓIA,00242001,2,33,TUTÓIA,MARANHÃO,SUDENE,-2.76667,-42.2833,1965/10/01,2000/10/31,36,31.6,21,41.7
BARRO DURO,00242002,2,33,TUTÓIA,MARANHÃO,ANA,-2.9022,-42.3131,1984/04/14,2019/10/31,36,0.3,33,8.3
MORRO ALTO,00242003,2,33,BARREIRINHAS,MARANHÃO,ANA,-2.97,-42.9467,2010/03/01,2019/11/30,10,1.7,8,20.0
BEQUIMÃO,00244000,2,32,BEQUIMÃO,MARANHÃO,SUDENE,-2.45,-44.8,1965/10/01,1988/04/30,24,9.2,18,25.0
GUIMARÃES,00244001,2,32,GUIMARÃES,MARANHÃO,SUDENE,-2.13333,-44.6167,1965/11/01,1998/08/31,34,33.3,19,44.1
SÃO JOSÉ DO RIBAMAR,00244002,2,33,SÃO JOSÉ DE RIBAMAR,MARANHÃO,SUDENE,-2.55,-44.0667,1965/10/01,2001/01/31,37,18.9,26,29.7
ROSÁRIO,00244003,2,33,ROSÁRIO,MARANHÃO,SUDENE,-2.95,-44.25,1965/10/01,2000/10/31,36,25.0,25,30.6
SÃO BENTO,00244004,2,33,SÃO BENTO,MARANHÃO,INMET,-2.6833,-44.7167,1937/01/01,1983/12/31,47,75.7,6,87.2
SÃO LUÍS,00244006,2,33,SÃO LUÍS,MARANHÃO,INMET,-2.8833,-44.35,1910/07/01,2019/06/30,110,23.9,68,38.2
SÃO LUÍS,00244007,2,33,SÃO LUÍS,MARANHÃO,SUDENE,-2.53333,-44.3,1910/05/01,1988/12/31,79,29.1,52,34.2
SÃO BENTO,00244010,2,33,SÃO BENTO,MARANHÃO,SUDENE,-2.71667,-44.8333,1965/10/01,1989/03/31,25,6.8,14,44.0
GUIMARÃES,00244011,2,32,GUIMARÃES,MARANHÃO,ANA,-2.1294,-44.6069,1986/09/03,2019/09/30,34,1.5,26,23.5
SÃO BENTO,00244012,2,33,SÃO BENTO,MARANHÃO,ANA,-2.7011,-44.8233,1986/09/05,2019/11/30,34,2.2,24,29.4
ALTO TURI,00245000,2,32,SANTA HELENA,MARANHÃO,SUDENE,-2.9167,-45.65,1962/08/01,1974/11/30,13,23.7,6,53.8
ALTO TURI,00245001,2,32,MONÇÃO,MARANHÃO,ANA,-2.9539,-45.6647,1972/02/01,2019/09/30,48,1.0,43,10.4
CURVA GRANDE,00245002,2,32,SANTA HELENA,MARANHÃO,SUDENE,-2.6167,-45.4667,1965/10/01,1976/07/31,12,0.8,9,25.0
MARACACUME,00245003,2,32,CÂNDIDO MENDES,MARANHÃO,ANA,-2.0522,-45.9583,1971/12/01,2019/09/30,49,0.1,40,18.4
PARAÍSO,00245004,2,32,PINHEIRO,MARANHÃO,SUDENE,-2.8,-45.3167,1965/10/01,1976/04/30,12,11.0,6,50.0
PINHEIRO,00245005,2,32,PINHEIRO,MARANHÃO,SUDENE,-2.51667,-45.0833,1965/10/01,2000/04/30,36,29.4,20,44.4
SANTA HELENA,00245006,2,32,SANTA HELENA,MARANHÃO,SUDENE,-2.2333,-45.3,1965/10/01,1998/10/31,34,31.0,20,41.2
BR-316 / RIO PARUÁ,00245007,2,32,TURIAÇU,MARANHÃO,ANA,-2.5047,-45.7842,1981/09/23,2019/09/30,39,5.8,32,17.9
PEDRO ROSÁRIO,00245008,2,32,VIANA,MARANHÃO,ANA,-2.9708,-45.355,1984/08/24,2019/09/30,36,6.9,26,27.8
PIMENTA,00245009,2,32,PINHEIRO,MARANHÃO,ANA,-2.5903,-45.3653,1984/10/01,2019/09/30,36,2.1,28,22.2
PINHEIRO,00245010,2,32,PINHEIRO,MARANHÃO,ANA,-2.5153,-45.0856,1986/03/01,2019/09/30,34,1.9,18,47.1
SANTA HELENA,00245011,2,32,SANTA HELENA,MARANHÃO,ANA,-2.2739,-45.2711,1986/03/20,2019/09/30,34,4.2,27,20.6
CANINDÉ,00246001,2,32,PARAGOMINAS,PARÁ,ANA,-2.5667,-46.5167,1982/12/20,1985/01/31,4,4.5,1,75.0
SANTA MARIA DO GURUPI - CIGANA,00246002,2,32,CACHOEIRA DO PIRIA,PARÁ,ANA,-2.2353,-46.4356,2004/09/28,2019/09/30,16,2.6,10,37.5
BADAJÓS,00247000,2,31,SÃO DOMINGOS DO CAP,PARÁ,ANA,-2.5128,-47.7681,1972/07/14,2019/08/31,48,5.0,35,27.1
ACAMPAMENTO JABOTÍ,00247001,2,31,SÃO DOMINGOS DO CAP,PARÁ,ANA,-2.4333,-47.25,1976/02/28,1977/03/31,2,0.3,0,100.0
FAZENDA JAUARÁ,00247003,2,31,AURORA DO PARÁ,PARÁ,ANA,-2.0356,-47.7506,1982/06/12,2019/06/30,38,2.6,27,28.9
FAZENDA SÃO RAIMUNDO,00247004,2,31,IPIXUNA DO PARÁ,PARÁ,ANA,-2.4261,-47.5161,1982/06/14,2019/04/30,38,5.2,26,31.6
CAFEZAL,00247005,2,32,PARAGOMINAS,PARÁ,ANA,-2.7717,-46.8025,1985/02/26,2019/07/31,35,1.6,26,25.7
PA-256 / RIO CAPIM,00247006,2,31,IPIXUNA DO PARÁ,PARÁ,ANA,-2.9483,-47.8144,1989/10/04,2019/04/30,31,1.6,21,32.3
PARAGOMINAS,00247007,2,31,PARAGOMINAS,PARÁ,EMBRAPA/IPAGRO,-2.9833,-47.4667,1980/01/01,1995/03/31,16,36.3,7,56.2
ACAMPAMENTO MENDES JUNIOR,00247008,2,31,SÃO DOMINGOS DO CAP,PARÁ,ANA,-2.3433,-47.8469,1995/01/01,2019/06/30,25,4.4,17,32.0
FAZENDA URUCURE,00248001,2,31,ACARÁ,PARÁ,ANA,-2.4478,-48.5786,1982/03/18,2019/04/30,38,6.7,28,26.3
TOMÉ-AÇU,00248002,2,31,TOMÉ-AÇU,PARÁ,ANA,-2.1333,-48.3833,1977/01/01,1995/03/31,19,68.0,4,78.9
TOMÉ-AÇU,00248003,2,31,TOMÉ-AÇU,PARÁ,ANA,-2.4208,-48.1489,1984/04/22,2019/04/30,36,0.7,32,11.1
FAZENDA PORTO ALTO,00248004,2,31,ACARÁ,PARÁ,EMBRAPA/IPAGRO,-2.6333,-48.2167,1985/01/01,1988/12/31,4,0.0,4,0.0
INATAM,00248005,2,31,TOMÉ-AÇU,PARÁ,EMBRAPA/IPAGRO,-2.5167,-48.3667,1985/01/01,2010/12/31,26,38.5,13,50.0
PA-256 / RIO ACARA-MIRIM,00248006,2,31,TOMÉ-AÇU,PARÁ,ANA,-2.7822,-48.3522,1990/03/01,2019/04/30,30,0.4,25,16.7
CAMETÁ,00249000,2,29,CAMETÁ,PARÁ,ANA,-2.25,-49.5,1968/06/16,1981/03/31,14,39.1,7,50.0
CAMETÁ,00249001,2,29,CAMETÁ,PARÁ,INMET,-2.25,-49.5,1975/01/01,1998/12/31,24,3.7,19,20.8
VILA ELIM,00249002,2,31,MOJU,PARÁ,ANA,-2.8044,-49.3778,1980/10/24,2019/06/30,40,0.9,34,15.0
BAIÃO,00249003,2,29,BAIÃO,PARÁ,ANA,-2.785,-49.6694,1984/05/06,2019/06/30,36,2.4,22,38.9
VILA DO CARMO,00249004,2,29,MOCAJUBA,PARÁ,ANA,-2.4497,-49.4383,1994/12/17,2019/06/30,26,1.7,21,19.2
CIPOAL,00250000,2,19,PORTEL,PARÁ,ANA,-2.785,-50.4536,1977/11/25,2019/10/31,43,0.3,38,11.6
VILA SÃO BENEDITO,00250001,2,19,BAGRE,PARÁ,ANA,-1.9917,-50.3686,1982/02/13,2019/10/31,38,1.9,25,34.2
IRAPURU,00250002,2,19,PORTEL,PARÁ,ANA,-2.4533,-50.9228,1986/01/23,2019/10/31,34,0.2,31,8.8
ACANGATA,00250003,2,19,PORTEL,PARÁ,ANA,-2.245,-50.6297,1989/06/01,2019/10/31,31,2.2,21,32.3
MARACACUERA FLORESTAL,00251000,2,19,PORTEL,PARÁ,ANA,-2.245,-51.1794,1977/11/23,2019/10/31,43,0.8,34,20.9
SENADOR JOSÉ PORFÍRIO,00251001,2,18,SENADOR JOSÉ PORFIR,PARÁ,ANA,-2.5867,-51.9481,1999/11/01,2019/07/31,21,5.6,7,66.7
FAZENDA BOA ESPERANÇA,00252000,2,18,PORTO DE MOZ,PARÁ,ANA,-2.2167,-52.8,1981/09/29,1985/01/23,5,2.6,2,60.0
ITAPÉUA DO PARÁ,00252001,2,18,PORTO DE MOZ,PARÁ,ANA,-2.3364,-52.9186,1986/01/16,2019/09/30,34,1.2,24,29.4
SANTA CRUZ,00253000,2,18,PRAINHA,PARÁ,ANA,-1.1789,-53.5994,1984/05/03,2019/04/30,36,5.8,25,30.6
SANTARÉM,00254000,2,17,SANTARÉM,PARÁ,ANA,-2.4433,-54.7025,1968/05/01,2019/07/31,52,2.6,31,40.4
SANTARÉM - TAPERINHA,00254001,2,18,SANTARÉM,PARÁ,INMET,-2.4167,-54.3333,1961/01/01,1981/09/30,21,3.5,13,38.1
MONTE ALEGRE,00254002,2,18,MONTE ALEGRE,PARÁ,INMET,-2.0022,-54.0764,1975/01/01,1998/12/31,24,0.5,19,20.8
BELTERRA,00254003,2,17,SANTARÉM,PARÁ,INMET,-2.6333,-54.95,1975/01/01,1998/12/31,24,0.2,23,4.2
SANTARÉM,00254004,2,17,SANTARÉM,PARÁ,DEPV,-2.4167,-54.7833,1980/01/01,1985/12/31,6,0.0,6,0.0
BARRAGEM - CONJ.4,00254005,2,18,SANTARÉM,PARÁ,ANA,-2.815,-54.2978,1977/11/19,2003/07/31,27,0.4,19,29.6
MOJU PRIMEIRO,00254006,2,18,SANTARÉM,PARÁ,CELPA,-2.7333,-54.7667,1983/10/01,1984/10/31,2,0.0,0,100.0
UHE CURUÁ - UNA,00254007,2,18,SANTARÉM,PARÁ,CELPA,-2.8167,-54.3,1983/12/01,1984/10/31,2,0.3,0,100.0
BOA VISTA (Paraná do Rio Amazonas),00254010,2,18,SANTARÉM,PARÁ,ANA,-2.2628,-54.5244,2004/11/24,2019/04/30,16,1.2,12,25.0
KM - 1707/BR 163,00254011,2,18,BELTERRA,PARÁ,ANA,-2.65,-54.8189,2004/11/14,2019/04/30,16,1.2,12,25.0
CURUAI,00255000,2,17,SANTARÉM,PARÁ,ANA,-2.2683,-55.4806,1989/05/04,2019/08/31,31,18.1,16,48.4
CACHOEIRA DO ARUÃ,00255001,2,17,SANTARÉM,PARÁ,ANA,-2.6508,-55.7206,1997/07/03,2019/04/30,23,0.4,20,13.0
SÃO JOSÉ,00255002,2,17,SANTARÉM,PARÁ,ANA,-2.5644,-55.3742,2004/11/17,2019/04/30,16,0.4,8,50.0
PARINTINS,00256000,2,16,PARINTINS,AMAZONAS,INMET,-2.6333,-56.7333,1961/01/01,1998/12/31,38,13.4,25,34.2
JURUTI,00256001,2,16,JURUTI,PARÁ,ANA,-2.1522,-56.0875,1982/04/27,2019/08/31,38,4.8,16,57.9
NHAMUNDÁ,00256002,2,16,NHAMUNDÁ,AMAZONAS,ANA,-2.1897,-56.7106,1982/04/26,2019/08/31,38,4.3,19,50.0
URUCARA,00257000,2,16,URUCARÁ,AMAZONAS,ANA,-2.5378,-57.7581,1977/12/17,2019/08/31,43,2.7,26,39.5
BARREIRINHA,00257001,2,16,BARREIRINHA,AMAZONAS,ANA,-2.7922,-57.0644,1982/05/02,2019/06/30,38,3.1,19,50.0
BOA VISTA DO RAMOS,00257002,2,16,BOA VISTA DO RAMOS,AMAZONAS,ANA,-2.9703,-57.59,1989/02/26,2019/06/30,31,4.6,16,48.4
MOCAMBO,00257003,2,16,PARINTINS,AMAZONAS,ANA,-2.4556,-57.2825,1989/03/06,2019/05/31,31,2.4,17,45.2
SANTA LUZIA,00258001,2,16,URUCARÁ,AMAZONAS,ANA,-2.2911,-58.5058,1999/10/29,2019/04/30,21,2.1,14,33.3
CACHOEIRA MORENA,00259000,2,16,PRESIDENTE FIGUEIRE,AMAZONAS,ANA,-2.1039,-59.3442,1974/08/01,2019/07/31,46,12.8,22,52.2
FAZENDA CIA NORTE,00259001,2,16,ITACOATIARA,AMAZONAS,ANA,-2.8,-59.4667,1980/09/17,1988/10/31,9,9.4,5,44.4
SÍTIO REGO BARROS,00259003,2,14,RIO PRETO DA EVA,AMAZONAS,ANA,-2.6833,-59.6833,1992/02/22,1994/02/16,3,0.0,1,66.7
RIO PRETO DA EVA,00259004,2,15,RIO PRETO DA EVA,AMAZONAS,ANA,-2.7003,-59.6997,1994/02/17,2019/07/31,26,0.3,23,11.5
RIO URUBÚ,00259005,2,16,RIO PRETO DA EVA,AMAZONAS,ANA,-2.66,-59.3608,2004/12/01,2019/07/31,16,1.6,11,31.2
TARUMÃ AÇU (INPA),00260001,2,14,MANAUS,AMAZONAS,SUDAM,-2.6333,-60.0833,1979/09/09,1982/12/15,4,17.4,1,75.0
RES. BIOLOGICA DE CUIEIRAS - INPA,00260002,2,14,MANAUS,AMAZONAS,SUDAM,-2.5667,-60.1167,1979/09/13,1982/12/31,4,0.9,2,50.0
TARUMÃ AÇU (INPA),00260003,2,14,MANAUS,AMAZONAS,SUDAM,-2.6,-60.1,1979/09/27,1982/12/23,4,10.2,1,75.0
RES. BIOLOGICA DE CUIEIRAS - INPA,00260004,2,14,MANAUS,AMAZONAS,SUDAM,-2.5667,-60.1,1979/10/01,1982/02/28,4,1.9,1,75.0
CARÃO,00260005,2,14,IRANDUBA,AMAZONAS,ANA,-2.9083,-60.6725,1982/05/15,2001/08/31,20,1.3,13,35.0
NOVO AIRÃO,00260006,2,14,NOVO AIRÃO,AMAZONAS,ANA,-2.62,-60.9478,1982/05/15,2019/08/31,38,0.6,33,13.2
PRESIDENTE FIGUEIREDO,00260007,2,16,PRESIDENTE FIGUEIRE,AMAZONAS,ANA,-2.0417,-60.0258,1985/02/07,2019/04/30,35,2.2,26,25.7
LAGO DO IPIXUNA,00260008,2,14,IRANDUBA,AMAZONAS,ANA,-2.8964,-60.6883,2001/08/18,2019/08/31,19,2.3,14,26.3
RIO CUIEIRAS,00260009,2,14,MANAUS,AMAZONAS,ANA,-2.6656,-60.3275,2004/02/17,2019/08/31,16,0.5,13,18.8
BARURI,00261000,2,14,NOVO AIRÃO,AMAZONAS,ANA,-2.0247,-61.5414,1982/05/19,2019/08/31,38,8.2,16,57.9
UNIÃO,00261001,2,14,CAAPIRANGA,AMAZONAS,ANA,-2.9897,-61.7292,2000/02/13,2019/10/31,20,2.8,12,40.0
SÃO PEDRO,00265000,2,12,MARAÃ,AMAZONAS,ANA,-2.35,-65.1167,1982/06/26,2019/10/31,38,5.4,20,47.4
FONTE BOA,00266000,2,12,FONTE BOA,AMAZONAS,INMET,-2.5333,-66.1667,1961/01/01,1997/07/31,37,24.2,18,51.4
FOZ DO JUTAÍ,00266001,2,12,FONTE BOA,AMAZONAS,ANA,-2.75,-66.95,1972/06/17,1973/11/30,2,0.0,0,100.0
BARREIRINHA,00266002,2,12,SANTO ANTÔNIO DO IÇ,AMAZONAS,ANA,-2.1,-66.45,1982/06/20,1996/04/30,15,16.6,8,46.7
BARREIRINHA,00266003,2,12,SANTO ANTÔNIO DO IÇ,AMAZONAS,ANA,-2.1164,-66.4628,1989/01/01,2013/06/25,25,6.1,20,20.0
PORTO ANTUNES,00266004,2,12,JUTAÍ,AMAZONAS,ANA,-2.8903,-66.9492,1979/02/15,2019/12/31,41,16.5,26,36.6
FONTE BOA,00266005,2,12,FONTE BOA,AMAZONAS,ANA,-2.4908,-66.0597,2004/02/01,2019/12/31,16,5.5,3,81.2
ESPÍRITO SANTO,00267001,2,12,FONTE BOA,AMAZONAS,ANA,-2.75,-67.5667,1992/06/14,2019/11/30,28,0.2,21,25.0
BOA UNIÃO,00268000,2,11,SANTO ANTÔNIO DO IÇ,AMAZONAS,ANA,-2.8806,-68.7986,1982/06/17,2019/11/30,38,2.3,23,39.5
IPIRANGA VELHO,00269000,2,11,SANTO ANTÔNIO DO IÇ,AMAZONAS,ANA,-2.9833,-69.5833,1979/04/22,1996/04/30,18,23.8,2,88.9
IPIRANGA NOVO,00269001,2,11,SANTO ANTÔNIO DO IÇ,AMAZONAS,ANA,-2.9297,-69.6931,1996/05/01,2019/11/30,24,0.9,18,25.0
FERNANDO DE NORONHA 82400,00332000,2,90,FERNANDO DE NORONHA,PERNAMBUCO,INMET,-3.85,-32.4167,1925/01/01,1985/12/31,61,57.5,21,65.6
FORTALEZA,00338000,2,35,FORTALEZA,CEARÁ,INMET,-3.7667,-38.8833,1912/01/01,2019/06/30,108,10.8,80,25.9
PICI,00338001,2,35,FORTALEZA,CEARÁ,FUNCEME-CE,-3.75,-38.5833,1919/04/01,2020/02/29,102,1.6,93,8.8
PACATUBA,00338002,2,35,PACATUBA,CEARÁ,FUNCEME-CE,-3.9833,-38.6167,1912/04/01,2020/02/29,109,29.1,73,33.0
MONDUBIM,00338003,2,35,FORTALEZA,CEARÁ,FUNCEME-CE,-3.8164,-38.5792,1961/11/01,2009/04/01,49,29.9,30,38.8
MARACANAU,00338005,2,35,MARACANAU,CEARÁ,FUNCEME-CE,-3.9,-38.6333,1933/01/01,2020/02/29,88,19.2,69,21.6
GUARARU,00338006,2,35,CAUCAIA,CEARÁ,SUDENE,-3.71667,-38.8333,1962/01/01,1977/10/31,16,2.1,14,12.5
AQUIRAZ,00338007,2,35,AQUIRAZ,CEARÁ,FUNCEME-CE,-3.9,-38.3833,1912/01/01,2020/02/29,109,24.2,80,26.6
SÃO GONÇALO DO AMARANTE,00338008,2,35,SÃO GONÇALO DO AMAR,CEARÁ,FUNCEME-CE,-3.67,-38.98,1927/05/01,2020/02/29,94,5.1,86,8.5
CAUCAIA,00338009,2,35,CAUCAIA,CEARÁ,FUNCEME-CE,-3.75,-38.6833,1912/01/01,2020/02/29,109,1.5,100,8.3
TRAPIÁ,00338011,2,35,MARANGUAPE,CEARÁ,SUDENE,-3.96667,-38.7833,1962/03/01,1979/02/28,18,1.0,14,22.2
BOM PRINCÍPIO,00338012,2,35,CAUCAIA,CEARÁ,SUDENE,-3.96667,-38.8833,1962/01/01,1979/02/28,18,8.8,13,27.8
SÍTIOS NOVOS,00338013,2,35,CAUCAIA,CEARÁ,SUDENE,-3.73333,-38.9667,1962/03/01,1986/02/28,25,1.0,22,12.0
UMARITUBA NOVA,00338014,2,35,SÃO GONÇALO DO AMAR,CEARÁ,ANA,-3.67,-38.9817,1962/03/01,2019/12/31,58,9.4,45,22.4
UMARITUBA,00338015,2,35,SÃO GONÇALO DO AMAR,CEARÁ,SUDENE,-3.66667,-38.9833,1962/03/01,1999/09/30,38,14.4,29,23.7
MARANGUAPE,00338016,2,35,MARANGUAPE,CEARÁ,FUNCEME-CE,-3.9,-38.6667,1910/10/01,2020/02/29,111,2.6,101,9.0
AEROPORTO(FORTALEZA),00338018,2,35,FORTALEZA,CEARÁ,FUNCEME-CE,-3.7667,-38.5167,1912/01/01,2008/12/01,97,43.9,47,51.5
FORTALEZA CENTRO,00338026,2,35,FORTALEZA,CEARÁ,SUDENE,-3.73333,-38.55,1919/04/01,1985/12/31,67,1.9,63,6.0
TUCUNDUBA,00338027,2,35,CAUCAIA,CEARÁ,FUNCEME-CE,-3.8667,-38.75,2000/06/09,2019/12/31,20,16.3,12,40.0
LAGOA DA SERRA,00338028,2,35,CAUCAIA,CEARÁ,FUNCEME-CE,-3.8167,-38.95,2000/06/01,2018/03/31,19,54.1,5,73.7
SÍTIOS NOVOS,00338029,2,35,CAUCAIA,CEARÁ,FUNCEME-CE,-3.75,-38.9167,1998/07/01,2020/02/29,23,49.6,7,69.6
PITOMBEIRA,00338030,2,35,CAUCAIA,CEARÁ,FUNCEME-CE,-3.6333,-38.7833,2000/06/10,2014/02/28,15,53.8,4,73.3
ICARAÍ,00338031,2,35,CAUCAIA,CEARÁ,FUNCEME-CE,-3.6667,-38.6667,2000/01/07,2008/12/01,9,74.0,1,88.9
PRIMAVERA,00338032,2,35,CAUCAIA,CEARÁ,FUNCEME-CE,-3.7,-38.8167,2000/06/10,2008/12/01,9,81.3,0,100.0
BOM PRINCÍPIO,00338033,2,35,CAUCAIA,CEARÁ,FUNCEME-CE,-3.95,-38.8833,2000/06/01,2014/04/30,15,3.3,12,20.0
EUSÉBIO,00338034,2,35,EUSÉBIO,CEARÁ,FUNCEME-CE,-3.9,-38.5,1990/01/01,2020/02/29,31,0.3,27,12.9
PARQUE ECOLÓGICO DO COCO,00338036,2,35,FORTALEZA,CEARÁ,FUNCEME-CE,-3.7333,-38.4833,1995/08/01,2008/12/01,14,65.7,1,92.9
CASTELÃO,00338037,2,35,FORTALEZA,CEARÁ,FUNCEME-CE,-3.8167,-38.5333,1988/02/01,2020/02/29,33,7.4,22,33.3
FUND.MA.NILVA(ÁGUA FRIA),00338038,2,35,FORTALEZA,CEARÁ,FUNCEME-CE,-3.7833,-38.4667,1998/06/01,2020/02/29,23,0.2,20,13.0
MESSEJANA,00338039,2,35,FORTALEZA,CEARÁ,FUNCEME-CE,-3.8333,-38.4667,1986/01/01,2020/02/29,35,22.8,21,40.0
ITAITINGA,00338040,2,35,ITAITINGA,CEARÁ,FUNCEME-CE,-3.95,-38.5167,1988/01/26,2020/02/29,33,6.3,27,18.2
PECEM,00338041,2,35,SÃO GONÇALO DO AMAR,CEARÁ,FUNCEME-CE,-3.55,-38.8333,1988/02/01,2016/01/31,29,55.6,10,65.5
SÃO VICENTE (PONTE BR-020),00338043,2,35,MARANGUAPE,CEARÁ,ANA,-3.9989,-38.9436,2004/10/28,2019/12/31,16,0.0,15,6.2
LADEIRA GRANDE,00338044,2,35,MARANGUAPE,CEARÁ,FUNCEME-CE,-3.9667,-38.7167,2000/06/01,2012/03/31,13,27.2,6,53.8
FAZENDA TIO COSME,00338045,2,35,CAUCAIA,CEARÁ,FUNCEME-CE,-3.6833,-38.9,1988/01/01,2007/12/01,20,90.1,1,95.0
SÍTIO ESTRELA DALVA,00338046,2,35,EUSÉBIO,CEARÁ,FUNCEME-CE,-3.9,-38.45,1988/01/01,2008/12/01,21,74.2,1,95.2
BERRA BODE-ETS,00338047,2,35,AQUIRAZ,CEARÁ,FUNCEME-CE,-3.9289,-38.3933,2005/02/01,2020/02/29,16,38.3,4,75.0
FUNCEME,00338048,2,35,FORTALEZA,CEARÁ,FUNCEME-CE,-3.7333,-38.5667,1974/01/01,2008/08/12,35,0.0,34,2.9
FAZENDA COLUMINJUBA,00338049,2,36,MARANGUAPE,CEARÁ,FUNCEME-CE,-3.9667,-38.75,1988/01/01,2020/02/29,33,75.7,2,93.9
PARQUELÂNDIA,00338050,2,35,FORTALEZA,CEARÁ,FUNCEME-CE,-3.7333,-38.5667,2007/12/01,2009/04/01,3,15.0,0,100.0
MONGUBA,00338051,2,35,PACATUBA,CEARÁ,FUNCEME-CE,-3.55,-38.6167,2008/12/01,2008/12/01,1,0.0,0,100.0
ESCOLA PROF LUIZA TEODORO,00338052,2,35,PACATUBA,CEARÁ,FUNCEME-CE,-3.9225,-38.6,2008/11/01,2020/02/29,13,3.9,7,46.2
NOVO MARACANAU,00338053,2,35,MARACANAU,CEARÁ,FUNCEME-CE,-3.8617,-38.6233,2003/10/01,2020/02/29,18,31.9,10,44.4
MUSEU RODOLFO TEÓFILO,00338054,2,36,MARACANAU,CEARÁ,FUNCEME-CE,-3.86,-38.59,2003/10/01,2020/02/29,18,36.6,9,50.0
SIUPE,00338055,2,36,SÃO GONÇALO DO AMAR,CEARÁ,FUNCEME-CE,-3.5331,-38.9464,2009/12/01,2020/02/29,12,3.8,9,25.0
SEDE,00338056,2,36,SÃO GONÇALO DO AMAR,CEARÁ,FUNCEME-CE,-3.6106,-38.9697,2010/01/01,2020/02/29,11,7.4,8,27.3
CAMPO GRANDE,00338057,2,35,CAUCAIA,CEARÁ,ANA,-3.7633,-38.6983,2013/03/01,2019/12/31,7,0.0,6,14.3
DEFESA CIVIL,00338079,2,35,FORTALEZA,CEARÁ,FUNCEME-CE,-3.7431,-38.5519,2012/02/01,2016/04/01,5,12.1,0,100.0
PARQUE SÃO JOÃO,00338080,2,35,MARACANAU,CEARÁ,FUNCEME-CE,-3.8194,-38.625,2013/02/01,2020/02/29,8,0.0,6,25.0
SANTO AMARO,00338081,2,35,SÃO GONÇALO DO AMAR,CEARÁ,FUNCEME-CE,-3.5542,-38.8739,2014/12/01,2020/02/29,7,0.0,5,28.6
SÍTIO SAPUCAIA FAGUNDES,00338082,2,35,AQUIRAZ,CEARÁ,FUNCEME-CE,-3.9578,-38.3511,2015/02/01,2020/02/29,6,0.0,4,33.3
PAÇO MUNICIPAL,00338083,2,35,ITAITINGA,CEARÁ,FUNCEME-CE,-3.975,-38.5181,2017/01/01,2020/02/29,4,0.0,3,25.0
SEMAN,00338084,2,35,ITAITINGA,CEARÁ,FUNCEME-CE,-3.9481,-38.5589,2017/01/01,2020/02/29,4,0.0,3,25.0
AMONTADA,00339000,2,35,AMONTADA,CEARÁ,ANA,-3.3633,-39.8294,1978/01/01,2019/12/31,42,5.0,33,21.4
AÇUDE CAXITORÉ,00339001,2,35,PENTECOSTE,CEARÁ,FUNCEME-CE,-3.75,-39.3667,1962/02/01,2018/03/31,57,28.8,33,42.1
AÇUDE PENTECOSTE,00339002,2,35,PENTECOSTE,CEARÁ,DNOCS,-3.7833,-39.2667,1951/03/01,1983/12/31,33,28.5,20,39.4
PENTECOSTE,00339004,2,35,PENTECOSTE,CEARÁ,FUNCEME-CE,-3.7833,-39.2667,1952/01/01,2020/02/29,69,4.6,62,10.1
SÍTIOS NOVOS DE CIMA,00339005,2,35,CAUCAIA,CEARÁ,SUDENE,-3.8167,-39.0,1962/04/01,1991/12/31,30,0.3,28,6.7
ALMOFADA,00339006,2,35,ACARAÚ,CEARÁ,SUDENE,-3.0333,-39.8833,1962/01/01,2000/01/31,39,20.1,28,28.2
AMONTADA,00339007,2,35,ITAPIPOCA,CEARÁ,DNOCS,-3.3833,-39.8333,1922/02/01,1978/04/30,57,16.1,44,22.8
ANARIO BRAGA,00339008,2,35,ITAPIPOCA,CEARÁ,SUDENE,-3.5333,-39.7667,1962/01/01,1976/07/31,15,0.0,14,6.7
ASSUNÇÃO,00339009,2,35,ITAPIPOCA,CEARÁ,DNOCS,-3.5667,-39.6333,1911/01/01,1989/03/31,79,41.2,43,45.6
ARACATIARA,00339011,2,35,ITAPIPOCA,CEARÁ,SUDENE,-3.1667,-39.7333,1962/01/01,1999/05/31,38,20.3,25,34.2
CEMOABA,00339012,2,35,URUBURETAMA,CEARÁ,DNOCS,-3.45,-39.4167,1962/01/01,1997/05/31,36,8.2,29,19.4
ITAPAGÉ,00339014,2,35,ITAPAJÉ,CEARÁ,DNOCS,-3.6833,-39.5833,1912/01/01,2009/02/28,98,0.7,93,5.1
BETÂNIA,00339016,2,35,ITAPIPOCA,CEARÁ,FUNCEME-CE,-3.2675,-39.6475,1911/01/01,2008/12/01,98,30.0,64,34.7
ICARAÍ,00339017,2,35,ITAPIPOCA,CEARÁ,SUDENE,-3.0667,-39.6167,1962/01/01,2001/01/31,40,7.7,33,17.5
IRAUÇUBA,00339018,2,35,IRAUÇUBA,CEARÁ,DNOCS,-3.7333,-39.7833,1912/01/01,2001/01/31,90,6.1,76,15.6
IRAPUÃ,00339019,2,35,PENTECOSTE,CEARÁ,SUDENE,-3.9167,-39.1333,1962/01/01,2000/04/30,39,14.1,30,23.1
IRATINGA,00339020,2,35,ITAPAJÉ,CEARÁ,DNOCS,-3.7333,-39.5333,1920/12/01,1985/11/30,66,23.1,47,28.8
JUÁ,00339021,2,35,IRAUÇUBA,CEARÁ,FUNCEME-CE,-3.8667,-39.8667,1935/01/01,1991/12/31,57,1.2,53,7.0
MATIAS,00339022,2,35,PENTECOSTE,CEARÁ,SUDENE,-3.9333,-39.0667,1962/01/01,2000/06/30,39,14.9,29,25.6
MIRAIMA,00339023,2,35,MIRAIMA,CEARÁ,FUNCEME-CE,-3.5667,-39.9667,1921/11/01,2020/02/29,100,9.5,85,15.0
MUNDAU,00339024,2,35,TRAIRI,CEARÁ,DNOCS,-3.1833,-39.3667,1910/12/01,1982/05/31,73,4.1,53,27.4
SÍTIO TREZE IRMÃOS,00339025,2,35,ITAPIPOCA,CEARÁ,FUNCEME-CE,-3.5167,-39.4167,1974/01/01,2008/12/01,35,5.7,27,22.9
PARACURU,00339026,2,35,PARACURU,CEARÁ,DNOCS,-3.3833,-39.0833,1910/11/01,1991/04/30,82,3.5,64,22.0
PROGRESSO,00339027,2,35,PENTECOSTE,CEARÁ,SUDENE,-3.7833,-39.0333,1962/01/01,1976/07/31,15,1.7,11,26.7
SÃO LUÍS DO CURU,00339028,2,35,SÃO LUÍS DO CURU,CEARÁ,ANA,-3.6739,-39.2417,1912/01/01,2019/12/31,108,7.3,89,17.6
SERROTE,00339029,2,35,SÃO GONÇALO DO AMAR,CEARÁ,SUDENE,-3.55,-39.1667,1962/01/01,1990/12/31,29,0.3,28,3.4
TRAIRI,00339030,2,35,TRAIRI,CEARÁ,FUNCEME-CE,-3.2833,-39.25,1962/01/01,2020/02/29,59,1.6,51,13.6
VERTENTES,00339031,2,35,ITAPAJÉ,CEARÁ,DNOCS,-3.9333,-39.5667,1935/01/01,1990/12/31,56,18.2,44,21.4
CRUXATI,00339033,2,35,ITAPIPOCA,CEARÁ,SUDENE,-3.2667,-39.65,1962/01/01,1989/08/31,28,2.7,21,25.0
URUBURETAMA,00339034,2,35,URUBURETAMA,CEARÁ,FUNCEME-CE,-3.6167,-39.5,1910/10/01,2020/02/29,111,29.2,73,34.2
PARACURU,00339036,2,35,PARACURU,CEARÁ,FUNCEME-CE,-3.4167,-39.0333,1977/01/01,2020/02/29,44,0.2,42,4.5
ITAPAJE,00339037,2,35,ITAPAJÉ,CEARÁ,FUNCEME-CE,-3.68,-39.58,1972/02/01,2020/02/29,49,2.2,46,6.1
AÇUDE RAJADA,00339038,2,35,URUBURETAMA,CEARÁ,DNOCS,-3.5833,-39.4667,1921/02/01,1930/09/30,10,1.7,8,20.0
PLUVIO.POSTO AGRICOLA,00339039,2,35,PENTECOSTE,CEARÁ,FUNCEME-CE,-3.7833,-39.2833,1979/06/01,2008/12/01,30,88.2,0,100.0
PARAIPABA,00339040,2,35,PARAIPABA,CEARÁ,FUNCEME-CE,-3.4,-39.1667,1968/08/01,2020/02/29,53,19.8,37,30.2
AÇUDE PEREIRA DE MIRANDA,00339041,2,35,PENTECOSTE,CEARÁ,FUNCEME-CE,-3.7833,-39.25,1988/01/02,2020/02/29,33,64.6,6,81.8
AÇUDE SÃO GABRIEL,00339042,2,35,IRAUÇUBA,CEARÁ,DNOCS,-3.7333,-39.7833,1984/05/01,1985/12/30,2,0.5,0,100.0
AÇUDE SÃO PEDRO DA TIMBAUBA,00339043,2,35,MIRAIMA,CEARÁ,FUNCEME-CE,-3.9169,-39.9667,1988/02/06,2007/12/01,20,62.0,4,80.0
SERROTA,00339044,2,35,APUIARES,CEARÁ,DNOCS,-3.8333,-39.3333,1984/05/01,1985/12/31,2,0.0,1,50.0
FAZENDA SÃO JOÃO,00339045,2,35,APUIARES,CEARÁ,ANA,-3.9453,-39.4111,1992/08/21,2019/12/31,28,0.0,25,10.7
SABIAGUABA,00339046,2,35,AMONTADA,CEARÁ,FUNCEME-CE,-3.1,-39.5833,2000/06/15,2013/01/31,14,40.7,6,57.1
ICARAÍ DE AMONTADA,00339047,2,35,AMONTADA,CEARÁ,FUNCEME-CE,-3.0333,-39.6667,1998/12/01,2020/02/29,23,7.3,16,30.4
AMONTADA,00339048,2,35,AMONTADA,CEARÁ,FUNCEME-CE,-3.3639,-39.8306,1982/01/01,2020/02/29,39,18.4,28,28.2
ARACATIARA,00339049,2,35,AMONTADA,CEARÁ,FUNCEME-CE,-3.1833,-39.75,2000/06/01,2019/11/30,20,30.7,8,60.0
MOITAS,00339050,2,35,AMONTADA,CEARÁ,FUNCEME-CE,-3.0064,-39.6881,1998/06/01,2016/07/31,19,51.0,6,68.4
APUIARES,00339051,2,35,APUIARES,CEARÁ,FUNCEME-CE,-3.95,-39.4333,1981/12/01,2020/02/29,40,0.1,37,7.5
BOA VISTA DO CAXITORÉ,00339052,2,35,IRAUÇUBA,CEARÁ,FUNCEME-CE,-3.9167,-39.7,2000/06/01,2020/01/31,21,28.6,9,57.1
IRAUCUBA,00339053,2,35,IRAUÇUBA,CEARÁ,FUNCEME-CE,-3.7333,-39.75,1981/01/01,2020/02/29,40,1.2,37,7.5
JUÁ,00339054,2,35,IRAUÇUBA,CEARÁ,FUNCEME-CE,-3.89,-39.87,1988/03/21,2020/02/29,33,32.4,19,42.4
MISSI,00339055,2,35,IRAUÇUBA,CEARÁ,FUNCEME-CE,-3.6167,-39.8167,2000/06/01,2020/02/29,21,23.4,12,42.9
SÃO JOAQUIM,00339056,2,35,ITAPAJÉ,CEARÁ,FUNCEME-CE,-3.73,-39.67,1999/01/01,2020/01/31,22,29.7,12,45.5
SANTA CRUZ,00339057,2,35,ITAPAJÉ,CEARÁ,FUNCEME-CE,-3.67,-39.52,2001/01/01,2020/02/29,20,3.4,16,20.0
ARAPARI,00339058,2,35,ITAPIPOCA,CEARÁ,FUNCEME-CE,-3.5436,-39.5828,2000/06/01,2020/02/29,21,2.2,17,19.0
BELA VISTA,00339059,2,35,ITAPIPOCA,CEARÁ,FUNCEME-CE,-3.2333,-39.6333,1998/06/01,2018/09/30,21,34.5,9,57.1
ASSUNÇÃO,00339060,2,35,ITAPIPOCA,CEARÁ,FUNCEME-CE,-3.5833,-39.65,2000/06/01,2008/12/01,9,75.2,2,77.8
FAZENDA MALA,00339061,2,35,ITAPIPOCA,CEARÁ,FUNCEME-CE,-3.3833,-39.4833,1995/12/01,2008/12/01,14,97.9,0,100.0
DESERTO,00339062,2,35,ITAPIPOCA,CEARÁ,FUNCEME-CE,-3.5,-39.5,1996/01/01,2008/12/01,13,99.8,0,100.0
PATOS,00339063,2,35,ITAREMA,CEARÁ,FUNCEME-CE,-3.0,-39.73,1998/06/01,2008/12/01,11,45.6,3,72.7
CARVOEIRO,00339064,2,35,ITAREMA,CEARÁ,FUNCEME-CE,-3.2,-39.9833,2000/10/01,2020/02/29,21,9.4,15,28.6
COMUNIDADE LEMOS,00339065,2,35,PENTECOSTE,CEARÁ,FUNCEME-CE,-3.9,-39.0,2000/06/01,2014/03/31,15,6.7,11,26.7
MARACAJÁ,00339067,2,35,PENTECOSTE,CEARÁ,FUNCEME-CE,-3.76,-39.08,2000/06/01,2008/12/01,9,57.6,2,77.8
CASA DE PEDRA,00339068,2,35,PENTECOSTE,CEARÁ,FUNCEME-CE,-3.75,-39.0667,2000/01/16,2020/02/29,21,1.9,18,14.3
PROVIDÊNCIA,00339069,2,35,PENTECOSTE,CEARÁ,FUNCEME-CE,-3.9667,-39.1333,1998/06/01,2012/03/31,15,30.3,4,73.3
TEJUÇUOCA,00339070,2,36,TEJUÇUOCA,CEARÁ,FUNCEME-CE,-3.9833,-39.5833,1988/01/01,2020/02/29,33,3.5,26,21.2
FAZENDA MALAQUIAS,00339071,2,36,TEJUÇUOCA,CEARÁ,FUNCEME-CE,-3.95,-39.55,1998/07/01,2020/02/29,23,9.5,13,43.5
BOA AÇÃO,00339072,2,36,TEJUÇUOCA,CEARÁ,FUNCEME-CE,-3.9667,-39.5333,1998/07/01,2016/01/31,19,3.5,14,26.3
TAMANDUÁ,00339073,2,36,TRAIRI,CEARÁ,FUNCEME-CE,-3.3167,-39.4,2000/06/01,2012/03/31,13,67.5,3,76.9
UMIRIM,00339074,2,35,UMIRIM,CEARÁ,FUNCEME-CE,-3.6667,-39.35,1989/01/01,2020/02/29,32,0.0,31,3.1
TURURU,00339075,2,35,TURURU,CEARÁ,FUNCEME-CE,-3.6,-39.45,1980/01/01,2019/04/30,40,8.8,32,20.0
VILA NOVA,00339076,2,35,ITAREMA,CEARÁ,ANA,-3.0244,-39.8703,2004/08/26,2019/12/31,16,0.8,14,12.5
BARRENTO,00339077,2,35,ITAPIPOCA,CEARÁ,ANA,-3.3017,-39.5128,2004/09/01,2019/12/31,16,0.1,14,12.5
SÃO LUÍS DO CURU,00339078,2,35,SÃO LUÍS DO CURU,CEARÁ,FUNCEME-CE,-3.6667,-39.2667,1974/01/01,2020/02/29,47,0.4,44,6.4
FAZENDA LAGOA DAS MERCES,00339079,2,35,ITAPIPOCA,CEARÁ,FUNCEME-CE,-3.16,-39.58,1988/01/30,2020/02/29,33,59.3,9,72.7
FAZENDA LAGOINHA,00339080,2,35,ITAPIPOCA,CEARÁ,FUNCEME-CE,-3.4,-39.5667,1983/01/01,2014/03/31,32,82.6,1,96.9
FAZENDA SANTA LUIZA,00339081,2,35,ITAPIPOCA,CEARÁ,FUNCEME-CE,-3.2,-39.5333,1996/01/01,2017/03/24,22,86.3,1,95.5
PRAIA DA BALEIA,00339082,2,35,ITAPIPOCA,CEARÁ,FUNCEME-CE,-3.15,-39.4333,1995/12/21,2020/02/29,26,17.0,15,42.3
SANTO AMARO,00339083,2,35,ITAPIPOCA,CEARÁ,FUNCEME-CE,-3.5333,-39.5833,2002/04/09,2012/03/31,11,96.5,0,100.0
ITAPIPOCA,00339084,2,35,ITAPIPOCA,CEARÁ,FUNCEME-CE,-3.5,-39.5667,1974/01/01,2020/02/29,47,0.7,45,4.3
ITACOLOMI,00339085,2,35,URUBURETAMA,CEARÁ,FUNCEME-CE,-3.6167,-39.55,1996/01/01,2008/12/01,13,75.1,2,84.6
FAZENDA LAGES,00339086,2,35,TRAIRI,CEARÁ,FUNCEME-CE,-3.41,-39.33,2001/01/01,2020/02/29,20,27.7,10,50.0
MELANCIA,00339087,2,35,SÃO GONÇALO DO AMAR,CEARÁ,ANA,-3.6111,-39.2164,2013/03/01,2015/10/14,3,0.0,1,66.7
FAZENDA PAU D'ARCO,00339092,2,35,ITAPIPOCA,CEARÁ,FUNCEME-CE,-3.1314,-39.5519,2007/12/01,2020/02/13,14,59.7,2,85.7
SEBASTIÃO DE ABREU,00339094,2,35,PENTECOSTE,CEARÁ,FUNCEME-CE,-3.8483,-39.3231,2003/02/01,2020/02/29,18,3.4,11,38.9
CAGADO,00339095,2,35,SÃO GONÇALO DO AMAR,CEARÁ,FUNCEME-CE,-3.5564,-39.185,2010/01/01,2020/02/29,11,18.6,6,45.5
SANTA CRUZ,00339096,2,35,AMONTADA,CEARÁ,FUNCEME-CE,-3.4522,-39.7767,2014/04/01,2020/02/29,7,11.3,3,57.1
VÁRZEA DA CAL,00339097,2,35,AMONTADA,CEARÁ,FUNCEME-CE,-3.3803,-39.9814,2014/05/01,2018/10/31,5,79.9,0,100.0
JACUÍPE NASCENTE,00339098,2,35,AMONTADA,CEARÁ,FUNCEME-CE,-3.2744,-39.9039,2017/03/22,2020/02/29,4,25.7,2,50.0
VILA SOARES,00339099,2,35,APUIARES,CEARÁ,FUNCEME-CE,-3.8692,-39.3511,2015/03/28,2015/10/14,1,0.0,0,100.0
BARRA DAS MOITAS,00339100,2,35,AMONTADA,CEARÁ,FUNCEME-CE,-3.0058,-39.7039,2015/03/22,2020/02/29,6,11.8,3,50.0
ASSENTAMENTO MANDACARU,00339101,2,35,IRAUÇUBA,CEARÁ,FUNCEME-CE,-3.84,-39.7872,2016/01/01,2020/02/29,5,0.0,4,20.0
POÇO DOCE,00339102,2,35,PARACURU,CEARÁ,FUNCEME-CE,-3.4422,-39.1086,2017/02/01,2019/12/31,3,2.9,1,66.7
JARDIM DO MEIO,00339103,2,35,PARACURU,CEARÁ,FUNCEME-CE,-3.4864,-39.0411,2017/02/17,2020/02/29,4,0.0,2,50.0
AÇUDE MUNDAU,00339104,2,35,URUBURETAMA,CEARÁ,FUNCEME-CE,-3.6317,-39.5172,2017/03/23,2020/02/29,4,0.0,2,50.0
MELANCIAS,00339105,2,35,TURURU,CEARÁ,FUNCEME-CE,-3.5842,-39.4267,2017/04/07,2020/02/29,4,2.9,1,75.0
ARACATIAÇU,00340000,2,35,SOBRAL,CEARÁ,FUNCEME-CE,-3.8833,-40.0167,1910/12/01,1974/06/30,65,22.6,48,26.2
ARAQUEM,00340001,2,35,COREAÚ,CEARÁ,SUDENE,-3.6167,-40.8167,1934/02/01,2000/02/29,67,10.7,53,20.9
AÇUDE AYRES DE SOUZA,00340002,2,35,SOBRAL,CEARÁ,FUNCEME-CE,-3.7667,-40.5,1941/01/01,2020/02/29,80,51.1,34,57.5
AÇUDE ARACATIAÇU,00340003,2,35,SOBRAL,CEARÁ,DNOCS,-3.9,-40.0167,1915/01/01,2001/01/31,87,42.2,46,47.1
FORQUILHA,00340005,2,35,FORQUILHA,CEARÁ,FUNCEME-CE,-3.8,-40.25,1920/01/01,2020/02/29,101,11.1,80,20.8
IPAGUASSU,00340007,2,35,MASSAPÊ,CEARÁ,DNOCS,-3.5,-40.2667,1912/01/01,1989/01/31,78,0.2,75,3.8
MARTINOPOLE,00340008,2,35,MARTINÓPOLE,CEARÁ,FUNCEME-CE,-3.2333,-40.6833,1962/01/01,2020/02/29,59,0.2,56,5.1
AÇUDE PATOS,00340009,2,35,SOBRAL,CEARÁ,DNOCS,-3.7667,-40.0333,1916/04/01,2000/04/30,85,28.2,47,44.7
SÃO VICENTE,00340010,2,35,SANTANA DO ACARAÚ,CEARÁ,DNOCS,-3.4,-40.2667,1919/12/01,1987/10/31,69,15.1,51,26.1
SOBRAL,00340011,2,35,SOBRAL,CEARÁ,DNOCS,-3.6667,-40.3667,1921/01/01,2007/12/01,87,29.3,55,36.8
TUCUNDUBA,00340012,2,35,SENADOR SÁ,CEARÁ,DNOCS,-3.1667,-40.4333,1913/01/01,2000/08/31,88,8.4,74,15.9
VÁRZEA DA VOLTA,00340013,2,35,MORAÚJO,CEARÁ,DNOCS,-3.5167,-40.6167,1917/11/01,1999/06/30,83,29.2,52,37.3
CARIRE,00340014,2,35,CARIRE,CEARÁ,FUNCEME-CE,-3.95,-40.4667,1913/09/01,2020/02/29,108,0.6,98,9.3
FRECHEIRINHA,00340015,2,35,FRECHEIRINHA,CEARÁ,FUNCEME-CE,-3.7667,-40.8167,1934/02/01,2020/02/29,87,5.1,71,18.4
GRANJA,00340016,2,35,GRANJA,CEARÁ,DNOCS,-3.1167,-40.8333,1911/01/01,1987/11/30,77,16.8,53,31.2
GRANJA,00340017,2,35,GRANJA,CEARÁ,FUNCEME-CE,-3.1333,-40.8333,1974/01/01,2020/02/29,47,0.3,44,6.4
IBIAPINA,00340018,2,34,IBIAPINA,CEARÁ,FUNCEME-CE,-3.9167,-40.8833,1912/01/01,2020/02/29,109,2.6,100,8.3
IBUAÇU,00340019,2,35,GRANJA,CEARÁ,DNOCS,-3.3833,-40.9167,1934/02/01,1989/03/31,56,9.2,42,25.0
MARCO,00340020,2,35,MARCO,CEARÁ,FUNCEME-CE,-3.15,-40.15,1962/01/01,2020/02/29,59,0.7,55,6.8
MUCAMBO,00340023,2,35,MUCAMBO,CEARÁ,FUNCEME-CE,-3.9,-40.7667,1933/04/01,2020/02/29,88,2.6,77,12.5
MUTAMBEIRAS,00340024,2,35,SANTANA DO ACARAÚ,CEARÁ,SUDENE,-3.3333,-40.15,1962/01/01,1989/03/31,28,10.7,19,32.1
PARACUA,00340025,2,35,URUOCA,CEARÁ,SUDENE,-3.3667,-40.7833,1962/01/01,2000/05/31,39,12.8,31,20.5
PARAZINHO,00340026,2,35,GRANJA,CEARÁ,SUDENE,-3.0333,-40.6667,1917/03/01,2000/12/31,84,61.2,26,69.0
SOBRAL (MOCAMBINHO),00340027,2,35,SOBRAL,CEARÁ,INMET,-3.7,-40.35,1912/01/01,1985/12/31,74,11.6,52,29.7
AEROPORTO(SOBRAL),00340028,2,35,SOBRAL,CEARÁ,FUNCEME-CE,-3.6667,-40.3333,1988/02/06,2020/02/29,33,58.9,7,78.8
TAPERA,00340029,2,35,CARIRE,CEARÁ,DNOCS,-3.85,-40.5333,1934/01/01,1976/04/30,43,1.2,38,11.6
TIANGUÁ,00340030,2,34,TIANGUÁ,CEARÁ,FUNCEME-CE,-3.7333,-40.9833,1912/01/01,2020/02/29,109,2.2,103,5.5
UBAJARA,00340031,2,34,UBAJARA,CEARÁ,FUNCEME-CE,-3.85,-40.9167,1912/01/01,2020/02/29,109,1.1,104,4.6
ARREBITE,00340032,2,35,SOBRAL,CEARÁ,SUDENE,-3.85,-40.2667,1969/12/01,1976/06/30,8,0.0,6,25.0
FAZENDA CACIMBINHA,00340034,2,35,SOBRAL,CEARÁ,SUDENE,-3.8167,-40.2,1970/01/01,2001/01/31,32,24.2,17,46.9
CARACARA,00340035,2,35,SOBRAL,CEARÁ,FUNCEME-CE,-3.7167,-40.0167,1911/12/01,2008/04/30,98,36.8,54,44.9
FAZENDA POCINHOS,00340036,2,35,SOBRAL,CEARÁ,SUDENE,-3.8833,-40.1667,1969/12/01,1995/04/30,27,21.7,16,40.7
AÇUDE RIACHINHO,00340037,2,35,SENADOR SÁ,CEARÁ,DNOCS,-3.25,-40.5167,1921/01/01,1937/12/31,17,29.4,12,29.4
SANTANA DO ACARAÚ,00340038,2,35,SANTANA DO ACARAÚ,CEARÁ,FUNCEME-CE,-3.4667,-40.2,1912/01/01,2020/02/29,109,41.9,60,45.0
URUOCA,00340039,2,35,URUOCA,CEARÁ,FUNCEME-CE,-3.3167,-40.5667,1941/01/01,2020/02/29,80,5.4,72,10.0
MERUOCA,00340041,2,35,MERUOCA,CEARÁ,DNOCS,-3.45,-40.4833,1912/01/01,2008/02/12,97,13.6,74,23.7
MOCAMBINHO,00340042,2,35,SOBRAL,CEARÁ,INMET,-3.7167,-40.4167,1968/10/01,1985/12/31,18,1.5,14,22.2
FAZENDA AÇUDE,00340043,2,35,SOBRAL,CEARÁ,SUDENE,-3.8333,-40.15,1969/12/01,1986/04/30,18,16.2,8,55.6
SOBRAL (OFICINAS),00340044,2,35,SOBRAL,CEARÁ,SUDENE,-3.85,-40.2167,1969/12/01,1976/04/30,8,0.0,6,25.0
SOBRAL,00340045,2,35,SOBRAL,CEARÁ,FUNCEME-CE,-3.7,-40.35,1912/01/01,2019/07/31,108,8.0,90,16.7
AÇUDE ACARAU MIRIM,00340047,2,35,MASSAPÊ,CEARÁ,FUNCEME-CE,-3.5,-40.3167,1984/05/01,2008/12/01,25,86.3,1,96.0
SÃO JOSÉ DO TORTO,00340048,2,35,SOBRAL,CEARÁ,FUNCEME-CE,-3.7833,-40.65,1997/12/01,2019/09/30,23,12.9,14,39.1
MASSAPÊ,00340049,2,35,MASSAPÊ,CEARÁ,FUNCEME-CE,-3.5333,-40.3333,1912/01/01,2020/02/29,109,19.9,84,22.9
PATOS,00340050,2,35,SOBRAL,CEARÁ,DNOCS,-3.7167,-40.0833,1932/01/01,1968/05/31,37,21.8,18,51.4
GRANJA,00340053,2,35,GRANJA,CEARÁ,ANA,-3.1208,-40.8208,1969/01/01,1972/12/31,4,24.8,0,100.0
FAZENDA CAIÇARA,00340055,2,35,FRECHEIRINHA,CEARÁ,DNOCS,-3.7667,-40.8167,1984/05/01,1985/08/31,2,0.0,0,100.0
QUATIGUABA,00340061,2,35,VIÇOSA DO CEARÁ,CEARÁ,FUNCEME-CE,-3.6667,-41.0667,1984/05/01,2008/12/01,25,93.1,1,96.0
AÇUDE SANTO ANTÔNIO DE ARACATIAÇU,00340063,2,35,SOBRAL,CEARÁ,DNOCS,-3.9,-40.0167,1984/05/01,1985/12/31,2,0.0,1,50.0
SOBRAL,00340064,2,35,SOBRAL,CEARÁ,ANA,-3.6967,-40.34,1992/08/21,2019/12/31,28,0.3,26,7.1
LAGOA DO CARNEIRO,00340065,2,35,ACARAÚ,CEARÁ,FUNCEME-CE,-3.0167,-40.05,2000/10/01,2020/02/29,21,1.5,14,33.3
ALCANTARAS,00340066,2,35,ALCANTARAS,CEARÁ,FUNCEME-CE,-3.5833,-40.55,1981/01/01,2020/02/29,40,5.7,32,20.0
BELA CRUZ,00340067,2,35,BELA CRUZ,CEARÁ,FUNCEME-CE,-3.0575,-40.1683,1980/07/01,2020/02/29,41,0.5,37,9.8
MATRIZ,00340068,2,35,BELA CRUZ,CEARÁ,FUNCEME-CE,-3.0667,-40.3333,2000/11/01,2008/12/01,9,19.4,4,55.6
ARARIUS,00340070,2,35,CARIDADE,CEARÁ,FUNCEME-CE,-3.88333,-40.6,2000/01/01,2004/12/31,5,15.1,4,20.0
AROEIRAZ,00340071,2,35,COREAÚ,CEARÁ,FUNCEME-CE,-3.64,-40.62,2000/11/01,2018/01/31,19,27.2,10,47.4
UBAUNA,00340072,2,35,COREAÚ,CEARÁ,FUNCEME-CE,-3.7333,-40.6833,2000/11/01,2020/02/29,21,1.0,18,14.3
TRAPIÁ,00340073,2,35,FORQUILHA,CEARÁ,FUNCEME-CE,-3.9,-40.2667,1998/05/01,2020/02/29,23,42.1,10,56.5
SAMBAÍBA,00340074,2,35,GRANJA,CEARÁ,FUNCEME-CE,-3.2,-40.96,2000/11/02,2020/02/29,21,27.0,12,42.9
PESSOA ANTA,00340075,2,35,GRANJA,CEARÁ,FUNCEME-CE,-3.35,-40.9833,1998/06/01,2020/02/29,23,0.1,20,13.0
PARAZINHO,00340076,2,35,GRANJA,CEARÁ,FUNCEME-CE,-3.0333,-40.65,1988/02/02,2020/02/29,33,53.6,10,69.7
PANACUI,00340077,2,35,MARCO,CEARÁ,FUNCEME-CE,-3.2219,-40.4158,2000/11/01,2020/02/29,21,0.2,16,23.8
TANGENTE,00340078,2,35,MASSAPÊ,CEARÁ,FUNCEME-CE,-3.4167,-40.3833,2000/11/01,2020/02/29,21,37.1,10,52.4
TABAINHA,00340079,2,35,TIANGUÁ,CEARÁ,FUNCEME-CE,-3.4747,-40.8283,2000/11/01,2019/10/31,20,30.7,11,45.0
MORRINHOS,00340080,2,35,MORRINHOS,CEARÁ,FUNCEME-CE,-3.2333,-40.1167,1984/01/01,2020/02/29,37,0.2,34,8.1
SERROTA,00340081,2,35,SENADOR SÁ,CEARÁ,FUNCEME-CE,-3.1667,-40.4667,1994/02/01,2020/02/29,27,25.8,15,44.4
SALÃO,00340082,2,35,SENADOR SÁ,CEARÁ,FUNCEME-CE,-3.4167,-40.5333,2000/11/01,2020/02/29,21,2.7,16,23.8
SINHÁ SABÓIA,00340083,2,35,SOBRAL,CEARÁ,FUNCEME-CE,-3.7167,-40.3333,1999/12/01,2020/02/29,22,2.8,16,27.3
APRAZIVEL,00340084,2,35,SOBRAL,CEARÁ,FUNCEME-CE,-3.75,-40.5667,1997/12/01,2020/01/31,24,13.4,13,45.8
CENTRO DE TREINAMENTO,00340085,2,35,SOBRAL,CEARÁ,FUNCEME-CE,-3.75,-40.3833,1998/01/01,2020/02/29,23,19.1,12,47.8
ARACATIAÇU,00340086,2,35,SOBRAL,CEARÁ,FUNCEME-CE,-3.8828,-40.0169,1988/03/21,2020/02/29,33,33.8,18,45.5
CARACARA,00340087,2,35,SOBRAL,CEARÁ,FUNCEME-CE,-3.7169,-40.0169,1997/12/01,2019/08/31,23,14.8,15,34.8
FAZENDA POÇO VERDE,00340088,2,35,SOBRAL,CEARÁ,FUNCEME-CE,-3.9,-40.0333,1988/02/01,2008/12/01,21,87.1,0,100.0
BOQUEIRÃO,00340089,2,35,SOBRAL,CEARÁ,FUNCEME-CE,-3.65,-40.45,1998/01/01,2020/02/29,23,9.9,14,39.1
BILHEIRA,00340090,2,35,SOBRAL,CEARÁ,FUNCEME-CE,-3.7,-40.35,1998/01/01,2013/08/31,16,10.5,10,37.5
PATRIARCA,00340091,2,35,SOBRAL,CEARÁ,FUNCEME-CE,-3.6,-40.2667,1997/12/01,2019/01/31,23,16.1,13,43.5
JORDÃO,00340092,2,35,SOBRAL,CEARÁ,FUNCEME-CE,-3.6833,-40.5167,1998/01/01,2019/04/30,22,14.7,14,36.4
SALGADO DOS MACHADOS,00340094,2,35,SOBRAL,CEARÁ,FUNCEME-CE,-3.75,-40.35,1998/01/01,2019/09/30,22,25.2,10,54.5
JAIBARAS,00340095,2,35,SOBRAL,CEARÁ,FUNCEME-CE,-3.8333,-40.5,1998/01/01,2019/01/31,22,10.1,17,22.7
CAIOCA,00340096,2,35,SOBRAL,CEARÁ,FUNCEME-CE,-3.6667,-40.2333,1997/09/11,2020/02/29,24,15.1,14,41.7
BONFIM,00340097,2,35,SOBRAL,CEARÁ,FUNCEME-CE,-3.7333,-40.3833,1998/01/01,2020/02/29,23,13.8,14,39.1
RAFAEL ARRUDA,00340098,2,35,SOBRAL,CEARÁ,FUNCEME-CE,-3.8333,-40.6667,1998/01/01,2020/02/29,23,3.4,19,17.4
PARAPUI,00340099,2,35,SANTANA DO ACARAÚ,CEARÁ,FUNCEME-CE,-3.3333,-40.1667,2000/10/01,2008/12/01,9,72.2,2,77.8
CAMPANÁRIO,00340100,2,35,URUOCA,CEARÁ,FUNCEME-CE,-3.3667,-40.7333,2000/11/01,2020/02/29,21,4.3,17,19.0
PARACUA,00340101,2,35,URUOCA,CEARÁ,FUNCEME-CE,-3.2333,-40.8,2001/01/01,2020/02/29,20,10.5,13,35.0
COREAU,00340102,2,35,COREAÚ,CEARÁ,FUNCEME-CE,-3.5667,-40.65,1976/01/01,2020/02/29,45,0.0,43,4.4
SENADOR SÁ,00340103,2,35,SENADOR SÁ,CEARÁ,FUNCEME-CE,-3.35,-40.4667,1974/01/01,2020/02/29,47,12.7,36,23.4
TAPERA,00340104,2,35,URUOCA,CEARÁ,ANA,-3.3289,-40.8464,2004/10/22,2019/12/31,16,0.0,15,6.2
ARARIUS,00340105,2,35,CARIRE,CEARÁ,ANA,-3.89,-40.6047,2004/10/26,2019/12/31,16,0.0,15,6.2
FAZENDA POÇO VERDE,00340106,2,35,SOBRAL,CEARÁ,ANA,-3.7506,-40.5064,2004/10/18,2019/12/31,16,0.0,15,6.2
GROAIRAS,00340107,2,35,GROAIRAS,CEARÁ,FUNCEME-CE,-3.9167,-40.3833,1981/01/01,2020/02/29,40,4.0,33,17.5
MORAUJO,00340108,2,35,MORAÚJO,CEARÁ,FUNCEME-CE,-3.4667,-40.6833,1981/01/01,2020/02/29,40,8.0,32,20.0
PACUJÁ,00340109,2,37,PACUJÁ,CEARÁ,FUNCEME-CE,-3.9833,-40.7,1981/01/01,2020/02/29,40,0.2,38,5.0
TIAIA DE BAIXO,00340110,2,35,GRANJA,CEARÁ,FUNCEME-CE,-3.0,-40.5667,2000/11/01,2020/02/29,21,16.2,13,38.1
ARARIUS,00340111,2,35,CARIRE,CEARÁ,FUNCEME-CE,-3.8833,-40.6,2000/01/01,2008/12/01,9,52.0,4,55.6
SÍTIO URUBÚ,00340112,2,35,COREAÚ,CEARÁ,FUNCEME-CE,-3.5333,-40.5667,2002/01/01,2020/02/29,19,1.8,14,26.3
MERUOCA,00340113,2,35,MERUOCA,CEARÁ,FUNCEME-CE,-3.55,-40.45,1979/01/01,2020/02/29,42,0.7,37,11.9
AÇUDE SOBRAL,00340114,2,35,SOBRAL,CEARÁ,FUNCEME-CE,-3.6667,-40.3667,1988/01/02,2020/02/29,33,68.6,6,81.8
AÇUDE FORQUILHA,00340115,2,35,FORQUILHA,CEARÁ,FUNCEME-CE,-3.8,-40.2333,1988/01/12,2020/02/29,33,44.3,14,57.6
SÍTIO ALEGRE,00340116,2,35,MORRINHOS,CEARÁ,FUNCEME-CE,-3.31,-40.12,2000/11/01,2008/12/01,9,70.5,2,77.8
CAMILOS,00340117,2,35,MERUOCA,CEARÁ,FUNCEME-CE,-3.6167,-40.4833,2003/01/01,2020/02/29,18,4.0,13,27.8
CURRAL VELHO,00340118,2,35,GROAIRAS,CEARÁ,ANA,-3.9975,-40.3703,2013/04/27,2019/12/31,7,0.0,6,14.3
CAPIM 1,00340129,2,35,GROAIRAS,CEARÁ,FUNCEME-CE,-3.9692,-40.3547,2012/04/01,2020/02/29,9,10.0,4,55.6
GAMELEIRA,00340130,2,35,MASSAPÊ,CEARÁ,FUNCEME-CE,-3.4269,-40.5139,2014/05/01,2020/02/25,7,63.8,1,85.7
PATOS,00340131,2,35,SOBRAL,CEARÁ,FUNCEME-CE,-3.7589,-40.0328,2013/01/01,2019/01/31,7,36.9,3,57.1
FAZENDA BOM PASTOR,00340132,2,35,COREAÚ,CEARÁ,FUNCEME-CE,-3.5275,-40.7075,2016/01/01,2020/02/29,5,2.0,3,40.0
CACIMBAS,00340133,2,35,CARIRE,CEARÁ,FUNCEME-CE,-3.8647,-40.6808,2017/03/01,2020/02/29,4,27.6,1,75.0
BOM PRINCÍPIO,00341000,2,34,PARNAÍBA,PIAUÍ,SUDENE,-3.25,-41.6333,1962/01/01,2002/03/31,41,4.4,36,12.2
BURITI DOS LOPES,00341001,2,34,BURITI DOS LOPES,PIAUÍ,SUDENE,-3.1833,-41.8667,1962/01/01,2002/02/28,41,2.1,36,12.2
CANAFISTULA,00341002,2,34,BURITI DOS LOPES,PIAUÍ,SUDENE,-3.6333,-41.8,1962/02/01,1978/08/31,17,5.0,12,29.4
COCAL,00341003,2,34,COCAL,PIAUÍ,SUDENE,-3.4833,-41.5667,1962/01/01,2002/02/28,41,13.7,30,26.8
DESERTO,00341004,2,34,PIRACURUCA,PIAUÍ,SUDENE,-3.65,-41.6,1962/01/01,1990/05/31,29,9.4,17,41.4
FAZENDA CHAFARIZ,00341005,2,34,COCAL,PIAUÍ,SUDENE,-3.7333,-41.4167,1962/01/01,1973/01/31,12,0.0,11,8.3
FAZENDA PREVENIDO,00341006,2,34,COCAL,PIAUÍ,SUDENE,-3.5667,-41.7333,1962/10/01,2013/10/31,52,34.1,31,40.4
FAZENDA SÃO DOMINGOS,00341007,2,34,BURITI DOS LOPES,PIAUÍ,SUDENE,-3.65,-41.9167,1962/10/01,1991/12/31,30,10.8,21,30.0
FAZENDA VITÓRIA DE BAIXO,00341008,2,34,BATALHA,PIAUÍ,SUDENE,-3.7,-41.9833,1964/01/01,1999/04/30,36,15.1,24,33.3
PIRACURUCA,00341009,2,34,PIRACURUCA,PIAUÍ,DNOCS,-3.9333,-41.7167,1912/06/01,2002/03/31,91,11.8,76,16.5
CHAVAL,00341010,2,35,CHAVAL,CEARÁ,FUNCEME-CE,-3.0333,-41.2333,1913/01/01,2020/02/29,108,30.5,59,45.4
FAZENDA CARAUBAS,00341012,2,35,GRANJA,CEARÁ,DNOCS,-3.3833,-41.0667,1934/01/01,1974/11/30,41,46.6,20,51.2
IBUGUAÇU,00341013,2,35,GRANJA,CEARÁ,SUDENE,-3.3667,-41.2667,1962/01/01,1990/05/31,29,10.9,19,34.5
SANTO ANTÔNIO DA PINDOBA,00341014,2,34,IBIAPINA,CEARÁ,FUNCEME-CE,-4.0328,-41.0831,1962/01/01,2020/02/29,59,50.6,23,61.0
PADRE VIEIRA,00341015,2,34,VIÇOSA DO CEARÁ,CEARÁ,SUDENE,-3.5667,-41.3333,1962/01/01,2001/01/31,40,16.0,30,25.0
VIÇOSA DO CEARÁ,00341016,2,35,VIÇOSA DO CEARÁ,CEARÁ,DNOCS,-3.5642,-41.0942,1912/01/01,1972/12/31,61,2.3,59,3.3
VIÇOSA DO CEARÁ,00341017,2,35,VIÇOSA DO CEARÁ,CEARÁ,INMET,-3.5833,-41.0833,1961/01/01,1969/10/31,9,16.1,0,100.0
VIÇOSA DO CEARÁ,00341018,2,35,VIÇOSA DO CEARÁ,CEARÁ,FUNCEME-CE,-3.5642,-41.0942,1974/01/01,2020/02/29,47,0.4,45,4.3
CONGOS,00341021,2,34,BATALHA,PIAUÍ,DNOCS,-3.9833,-41.95,1978/12/01,1986/04/30,9,0.8,4,55.6
CARAUBAS,00341022,2,35,VIÇOSA DO CEARÁ,CEARÁ,DNOCS,-3.5667,-41.0833,1984/05/01,1985/12/31,2,0.0,1,50.0
OITICICA,00341023,2,35,VIÇOSA DO CEARÁ,CEARÁ,DNOCS,-3.5667,-41.0833,1984/05/01,1986/04/30,3,16.4,0,100.0
PAULO PESSOA,00341024,2,35,GRANJA,CEARÁ,DNOCS,-3.1167,-41.0667,1970/07/01,1979/12/31,10,0.1,7,30.0
CARRASCO (BARRA DO LONGA),00341026,2,34,BURITI DOS LOPES,PIAUÍ,DNOCS,-3.15,-41.9333,1983/10/26,1985/12/31,3,3.9,1,66.7
TINGUIS,00341027,2,34,PIRACURUCA,PIAUÍ,ANA,-3.7233,-41.9756,1983/11/01,2019/11/30,37,0.4,34,8.1
SÃO JOSÉ DO DIVINO,00341028,2,34,SÃO JOSÉ DO DIVINO,PIAUÍ,EMATER,-3.8333,-41.7833,1993/01/01,2002/03/31,10,0.9,8,20.0
BARROQUINHA,00341029,2,35,BARROQUINHA,CEARÁ,FUNCEME-CE,-3.0167,-41.1167,1983/01/01,2020/02/29,38,17.3,29,23.7
ADRIANÓPOLIS,00341030,2,35,GRANJA,CEARÁ,FUNCEME-CE,-3.25,-41.2333,2000/11/01,2019/04/30,20,18.5,12,40.0
TIMONHA,00341031,2,35,GRANJA,CEARÁ,FUNCEME-CE,-3.25,-41.1333,2000/11/01,2020/02/29,21,16.2,12,42.9
IBUGUAÇU,00341032,2,35,GRANJA,CEARÁ,FUNCEME-CE,-3.35,-41.2667,1998/06/01,2020/02/29,23,28.2,8,65.2
PINDOGUABA,00341033,2,36,TIANGUÁ,CEARÁ,FUNCEME-CE,-3.7167,-41.1667,1994/01/01,2020/02/29,27,19.0,19,29.6
PADRE VIEIRA,00341034,2,35,VIÇOSA DO CEARÁ,CEARÁ,FUNCEME-CE,-3.5733,-41.3417,1998/04/01,2020/02/29,23,47.3,9,60.9
GENERAL TIBURCIO,00341035,2,35,VIÇOSA DO CEARÁ,CEARÁ,FUNCEME-CE,-3.5,-41.1167,1998/06/01,2017/07/10,20,43.6,7,65.0
MANHOSO,00341036,2,35,VIÇOSA DO CEARÁ,CEARÁ,FUNCEME-CE,-3.5,-41.0167,1998/05/01,2020/02/29,23,2.3,16,30.4
SÍTIO VAMBIRA,00341037,2,35,VIÇOSA DO CEARÁ,CEARÁ,FUNCEME-CE,-3.6333,-41.15,1998/06/01,2020/02/29,23,0.0,20,13.0
PIRACURUCA,00341038,2,34,PIRACURUCA,PIAUÍ,ANA,-3.9336,-41.7169,2004/11/23,2019/10/31,16,0.5,13,18.8
POÇO DA AREIA,00341039,2,34,UBAJARA,CEARÁ,FUNCEME-CE,-3.8483,-41.0631,1996/01/01,2019/11/30,24,26.0,10,58.3
CHAVAL RETIRO,00341040,2,35,CHAVAL,CEARÁ,ANA,-3.0789,-41.2522,2013/03/01,2019/12/31,7,0.0,6,14.3
CUMURUPIM,00341046,2,34,LUÍS CORREIA,PIAUÍ,SEMARH-PI,-3.0811,-41.4456,2015/06/01,2016/01/13,2,0.0,0,100.0
CANTO DA TAPERA,00341047,2,34,CARAÚBAS DO PIAUÍ,PIAUÍ,SEMARH-PI,-3.4936,-41.7489,2015/06/01,2016/10/31,2,0.0,0,100.0
LAMBEDOURO,00341049,2,35,VIÇOSA DO CEARÁ,CEARÁ,FUNCEME-CE,-3.5975,-41.02,2015/05/21,2020/02/29,6,35.6,1,83.3
BREJO,00342000,2,34,BREJO,MARANHÃO,SUDENE,-3.6833,-42.8,1965/10/01,2000/12/31,36,21.3,21,41.7
VERTENTES,00342001,2,33,SANTA QUITÉRIA DO M,MARANHÃO,SUDENE,-3.11667,-42.9333,1965/10/01,1989/02/28,25,3.6,17,32.0
ESPERANTINA,00342002,2,34,ESPERANTINA,PIAUÍ,ANA,-3.9033,-42.2294,1962/10/01,2019/10/31,58,2.0,51,12.1
FAZENDA BOA VISTA DOS CARIOCAS,00342003,2,34,ESPERANTINA,PIAUÍ,SUDENE,-3.65,-42.1333,1962/10/01,2001/01/31,40,14.1,28,30.0
LUZILÂNDIA (PORTO ALEGRE),00342004,2,34,LUZILÂNDIA,PIAUÍ,SUDENE,-3.4667,-42.3667,1962/11/01,2001/05/31,40,4.3,34,15.0
MATIAS OLÍMPIO,00342005,2,34,MATIAS OLÍMPIO,PIAUÍ,SUDENE,-3.7167,-42.55,1962/11/01,2002/03/31,41,0.4,37,9.8
PORTO,00342006,2,34,PORTO,PIAUÍ,DNOCS,-3.9,-42.7167,1924/03/01,2002/03/31,79,2.7,74,6.3
LUZILÂNDIA,00342007,2,34,LUZILÂNDIA,PIAUÍ,ANA,-3.4622,-42.3733,1983/11/25,2019/11/30,37,0.2,35,5.4
ONÇA (JOAQUIM PIRES),00342008,2,34,JOAQUIM PIRES,PIAUÍ,DNOCS,-3.5,-42.1833,1984/01/01,2001/05/31,18,34.9,10,44.4
BARRA DA ONÇA,00342009,2,34,SANTA QUITÉRIA DO M,MARANHÃO,ANA,-3.3647,-42.7239,1984/04/13,2019/10/31,36,0.2,34,5.6
ESPERANTINA,00342010,2,34,ESPERANTINA,PIAUÍ,INMET,-3.9,-42.25,1979/01/01,1985/12/31,7,9.3,3,57.1
LUZILÂNDIA,00342011,2,34,LUZILÂNDIA,PIAUÍ,INMET,-3.45,-42.3667,1979/01/01,1985/12/31,7,39.0,3,57.1
CHAPADA VOTORANTIM,00342022,2,34,NOSSA SENHORA DOS R,PIAUÍ,SEMARH-PI,-3.9892,-42.5539,2015/06/01,2016/03/31,2,7.9,0,100.0
CHAPADINHA,00343000,2,33,CHAPADINHA,MARANHÃO,SUDENE,-3.7333,-43.35,1965/09/01,1988/12/31,24,6.8,19,20.8
IGUARÁ,00343001,2,33,VARGEM GRANDE,MARANHÃO,ANA,-3.5536,-43.8736,1971/12/12,2019/10/31,49,1.1,41,16.3
NINA RODRIGUES,00343002,2,33,NINA RODRIGUES,MARANHÃO,DNOS,-3.4667,-43.9333,1968/07/01,1972/12/31,5,5.5,2,60.0
NINA RODRIGUES,00343003,2,33,NINA RODRIGUES,MARANHÃO,ANA,-3.4594,-43.8989,1968/06/01,2019/11/30,52,2.3,44,15.4
MUNIM,00343004,2,33,VARGEM GRANDE,MARANHÃO,ANA,-3.46,-43.8994,1973/01/01,2019/10/31,47,1.2,34,27.7
URBANO SANTOS,00343005,2,33,URBANO SANTOS,MARANHÃO,SUDENE,-3.2,-43.4,1965/10/01,2000/11/30,36,19.0,25,30.6
VARGEM GRANDE,00343006,2,33,VARGEM GRANDE,MARANHÃO,SUDENE,-3.55,-43.95,1965/10/01,1974/09/30,10,3.7,6,40.0
CHAPADINHA,00343008,2,33,CHAPADINHA,MARANHÃO,INMET,-3.7333,-43.35,1976/10/01,1998/12/31,23,0.4,21,8.7
MATA ROMA,00343009,2,33,MATA ROMA,MARANHÃO,ANA,-3.6258,-43.1122,1984/04/13,2019/11/30,36,0.8,27,25.0
BREJO DO MEIO,00343010,2,33,CHAPADINHA,MARANHÃO,ANA,-3.94,-43.5206,1984/08/23,2019/08/31,36,2.2,30,16.7
GONÇALO,00343011,2,33,URBANO SANTOS,MARANHÃO,ANA,-3.0439,-43.2367,1984/08/23,2019/11/30,36,0.2,34,5.6
SÃO BENEDITO,00343012,2,33,SÃO BENEDITO DO RIO,MARANHÃO,ANA,-3.3342,-43.5247,2010/03/03,2019/11/30,10,0.8,7,30.0
ANAJATUBA,00344000,2,33,ANAJATUBA,MARANHÃO,SUDENE,-3.26667,-44.6333,1965/10/01,1999/03/31,35,30.6,16,54.3
BALAIADA,00344001,2,33,COROATA,MARANHÃO,SUDENE,-3.8667,-44.1667,1965/11/01,1976/06/30,12,0.8,10,16.7
CANTANHEDE,00344003,2,33,CANTANHEDE,MARANHÃO,SUDENE,-3.6333,-44.4,1965/11/01,1987/07/31,23,3.4,15,34.8
CANTANHEDE,00344004,2,33,CANTANHEDE,MARANHÃO,ANA,-3.6325,-44.3764,1968/06/01,2019/10/31,52,0.3,49,5.8
ITAPICURU MIRIM,00344005,2,33,ITAPECURU MIRIM,MARANHÃO,SUDENE,-3.4,-44.35,1965/11/01,2001/01/31,37,32.2,15,59.5
PIRAPEMAS,00344006,2,33,PIRAPEMAS,MARANHÃO,ANA,-3.7333,-44.1833,1972/02/01,1979/07/31,8,8.0,3,62.5
PIRITORÓ II,00344007,2,33,PIRAPEMAS,MARANHÃO,ANA,-3.7097,-44.2933,1972/02/01,2019/11/30,48,1.4,44,8.3
PEDRAS,00344008,2,33,PIRAPEMAS,MARANHÃO,ANA,-3.9436,-44.0175,1979/07/16,2019/09/30,41,1.1,36,12.2
VITÓRIA DO MEARIM,00344009,2,33,VITÓRIA DO MEARIM,MARANHÃO,DNOS,-3.4667,-44.8,1980/01/18,1985/10/31,6,11.5,1,83.3
PRESIDENTE JUSCELINO,00344010,2,33,PRESIDENTE JUSCELIN,MARANHÃO,ANA,-2.9278,-44.0792,1983/01/18,2019/11/30,37,0.5,34,8.1
SÃO MATEUS DO MARANHÃO,00344011,2,33,SÃO MATEUS DO MARAN,MARANHÃO,ANA,-4.0078,-44.4661,1983/01/16,2019/10/31,37,1.5,28,24.3
MIRANDA,00344012,2,33,MIRANDA DO NORTE,MARANHÃO,ANA,-3.5497,-44.5833,1984/04/16,2019/11/30,36,0.5,32,11.1
LAGO AÇÚ,00344013,2,33,VITÓRIA DO MEARIM,MARANHÃO,ANA,-3.8464,-44.8908,1984/08/29,2019/11/30,36,0.8,31,13.9
ARATOÍ GRANDE,00345000,2,33,BELA VISTA DO MARAN,MARANHÃO,ANA,-3.765,-45.2203,1970/02/01,2019/11/30,50,1.7,45,10.0
BOM JARDIM,00345001,2,33,BOM JARDIM,MARANHÃO,SUDENE,-3.5667,-45.6333,1962/08/01,1974/10/31,13,18.4,6,53.8
CENTRO DO JOSIAS,00345002,2,32,MONÇÃO,MARANHÃO,SUDENE,-3.1167,-45.6333,1962/08/01,1974/08/31,13,15.9,8,38.5
MARAJÁ,00345003,2,33,MONÇÃO,MARANHÃO,SUDENE,-3.35,-45.45,1966/01/01,1973/01/31,8,2.4,5,37.5
PIMENTEL,00345004,2,33,PINDARÉ-MIRIM,MARANHÃO,ANA,-3.7167,-45.4833,1972/02/01,1972/05/15,1,3.8,0,100.0
PINDARÉ-MIRIM,00345005,2,33,PINDARÉ-MIRIM,MARANHÃO,SUDENE,-3.6167,-45.35,1962/08/01,2001/01/31,40,24.5,23,42.5
PINDARÉ-MIRIM,00345006,2,33,PINDARÉ-MIRIM,MARANHÃO,ANA,-3.6583,-45.4431,1972/02/01,2019/11/30,48,0.3,44,8.3
PIO XII,00345007,2,33,PIO XII,MARANHÃO,SUDENE,-3.8833,-45.2667,1965/10/01,1978/07/31,14,7.1,9,35.7
ROSILÂNDIA,00345008,2,33,MONÇÃO,MARANHÃO,SUDENE,-3.3167,-45.6167,1962/08/01,1976/07/31,15,18.4,8,46.7
VIANA,00345009,2,33,VIANA,MARANHÃO,SUDENE,-3.2167,-45.0,1966/02/01,1989/04/30,24,0.7,22,8.3
ZEDOCA,00345010,2,33,MONÇÃO,MARANHÃO,SUDENE,-3.2333,-45.6167,1965/08/01,1988/12/31,24,3.6,17,29.2
ZÉ DOCA (MONÇÃO),00345011,2,33,MONÇÃO,MARANHÃO,INMET,-3.2667,-45.65,1975/08/01,1998/12/31,24,0.5,19,20.8
BOA VISTA DO PINDARÉ,00345012,2,33,CAJARI,MARANHÃO,ANA,-3.4028,-45.0106,1983/01/21,2019/11/30,37,0.5,34,8.1
NEWTON BELO,00345013,2,33,MONÇÃO,MARANHÃO,ANA,-3.4244,-45.6694,1984/04/17,2019/11/30,36,0.1,31,13.9
ALTO ALEGRE,00345014,2,33,ALTO ALEGRE DO PIND,MARANHÃO,ANA,-3.6656,-45.8431,2010/05/06,2019/11/30,10,3.3,8,20.0
GADO BRAVO,00346000,2,33,GRAJAU,MARANHÃO,ANA,-3.5833,-46.2333,1972/01/01,1972/12/31,1,0.0,1,0.0
FAZENDA RURAL ZEBU,00346001,2,32,PARAGOMINAS,PARÁ,ANA,-3.3342,-46.8733,1980/12/17,2019/07/31,40,18.4,24,40.0
TUCUMÃ,00346002,2,33,BOM JARDIM,MARANHÃO,ANA,-4.2208,-46.1653,1984/04/20,2019/11/30,36,3.9,27,25.0
PARAGOMINAS,00347000,2,31,PARAGOMINAS,PARÁ,ANA,-3.01,-47.3433,1981/07/01,2019/04/30,39,6.8,21,46.2
GURUPIZINHO,00347001,2,32,PARAGOMINAS,PARÁ,ANA,-3.7425,-47.4978,1980/07/01,2019/01/25,40,3.2,29,27.5
FAZENDA PLANALTO (EX.RANCHO GRANDE),00347002,2,31,PARAGOMINAS,PARÁ,ANA,-3.4522,-47.4672,1982/04/25,2019/04/30,38,7.7,25,34.2
TAUIRI,00348000,2,31,SÃO DOMINGOS DO CAP,PARÁ,ANA,-3.5,-48.8333,1977/06/20,1988/04/05,12,22.1,3,75.0
FAZENDA MARINGA,00348001,2,31,SÃO DOMINGOS DO CAP,PARÁ,ANA,-3.1544,-48.0858,1982/10/24,2019/06/30,38,2.4,22,42.1
TAILÂNDIA,00348002,2,31,TAILÂNDIA,PARÁ,ANA,-2.9503,-48.9669,1994/08/07,2019/08/31,26,0.4,20,23.1
TUCURUÍ,00349000,2,29,TUCURUÍ,PARÁ,INMET,-3.7603,-49.6667,1970/10/01,2015/07/31,46,8.0,28,39.1
CACHOEIRA TRACAMBEUA,00349001,2,31,MOJU,PARÁ,ANA,-3.5142,-49.2225,1982/09/22,2019/08/31,38,8.0,16,57.9
GOIANÉSIA,00349002,2,31,TUCURUÍ,PARÁ,ANA,-3.8336,-49.0858,1985/03/30,2019/08/31,35,0.9,27,22.9
JOANA PERES,00349003,2,29,BAIÃO,PARÁ,ANA,-3.0158,-49.7967,1994/07/25,2019/06/30,26,0.7,21,19.2
FAZENDA ESTRELA DO NORTE,00350000,2,19,PORTEL,PARÁ,ANA,-3.8706,-50.4628,1977/11/26,2019/08/31,43,2.4,32,25.6
BOM JARDIM DA TRANSAMAZÔNICA,00350001,2,19,PORTEL,PARÁ,ANA,-3.6664,-50.6328,1999/11/01,2019/08/31,21,3.4,13,38.1
GRANJA GAZELA,00351000,2,19,PORTEL,PARÁ,ANA,-3.4194,-51.2558,1977/11/28,2019/08/31,43,7.2,29,32.6
FAZENDA SANTO ANTÔNIO,00351001,2,19,PORTEL,PARÁ,ANA,-3.6167,-51.3667,1981/05/23,1984/02/29,4,4.8,1,75.0
FAZENDA CIPAUBA,00351002,2,18,SENADOR JOSÉ PORFIR,PARÁ,ANA,-3.7231,-51.5681,1981/03/01,2019/08/31,39,14.2,16,59.0
ALTAMIRA KM-35,00351003,2,18,ALTAMIRA,PARÁ,EMBRAPA/IPAGRO,-3.2,-51.85,1987/06/17,1989/05/31,3,0.1,0,100.0
ALTAMIRA,00352000,2,18,ALTAMIRA,PARÁ,ANA,-3.2147,-52.2122,1968/07/01,1989/04/30,22,71.7,3,86.4
ALTAMIRA,00352001,2,18,ALTAMIRA,PARÁ,INMET,-3.2142,-52.2131,1961/01/01,2015/07/31,55,5.5,31,43.6
TASA - ALTAMIRA,00352002,2,18,ALTAMIRA,PARÁ,ELETRONORTE,-3.2,-52.2167,1976/07/26,1977/02/15,2,0.0,0,100.0
KARARÃO,00352004,2,18,ALTAMIRA,PARÁ,ANA,-3.9167,-52.8833,1977/02/13,1992/01/23,16,19.3,6,62.5
BRASIL NOVO,00352005,2,18,ALTAMIRA,PARÁ,ANA,-3.3078,-52.5419,1982/02/21,2019/07/31,38,6.1,23,39.5
KM 23 TRANSAMAZÔNICA,00352006,2,18,ALTAMIRA,PARÁ,EMBRAPA/IPAGRO,-3.2,-52.2167,1975/04/01,1987/12/31,13,47.0,6,53.8
URUARÁ,00353000,2,18,PRAINHA,PARÁ,ANA,-3.6778,-53.5544,1977/12/09,2019/08/28,43,6.8,24,44.2
KM-101 TRANSAMAZÔNICA,00353001,2,18,ALTAMIRA,PARÁ,EMBRAPA/IPAGRO,-3.2,-53.0167,1981/03/01,1987/12/31,7,43.8,2,71.4
VILA UNIÃO DA FLORESTA,00353002,2,18,MEDICILÂNDIA,PARÁ,ANA,-3.5181,-53.1406,1997/06/01,2019/07/31,23,4.2,14,39.1
SÍTIO SÃO PEDRO,00354000,2,18,SANTARÉM,PARÁ,ANA,-3.8889,-54.315,1977/12/06,2019/07/31,43,7.8,30,30.2
ACAMPAMENTO PILOTO,00354001,2,18,SANTARÉM,PARÁ,CELPA,-3.3833,-54.4833,1983/11/03,1984/07/04,2,30.6,0,100.0
KM 125 - ESTRADA SANTARÉM - CUIABÁ,00354002,2,18,AVEIRO,PARÁ,CELPA,-3.4,-54.9,1983/12/01,1984/10/31,2,0.0,0,100.0
SÍTIO CAJUEIRO,00354003,2,18,SANTARÉM,PARÁ,CELPA,-3.1333,-54.7833,1984/05/20,1984/10/31,1,0.0,0,100.0
FAZENDA DANIEL DE CARVALHO,00355000,2,17,AVEIRO,PARÁ,ELETRONORTE,-3.5833,-55.3667,1977/11/27,1983/01/31,7,0.0,5,28.6
MUTUM,00355001,2,17,SANTARÉM,PARÁ,ANA,-3.4936,-54.8869,1999/07/22,2019/07/31,21,3.3,15,28.6
MAMURU,00356000,2,16,JURUTI,PARÁ,ANA,-3.4167,-56.3167,1981/06/25,1985/03/31,5,6.0,2,60.0
NOVO PARAÍSO,00356001,2,16,JURUTI,PARÁ,ANA,-3.35,-56.4833,1986/01/22,1990/03/31,5,6.2,0,100.0
GUARIBA,00356002,2,16,JURUTI,PARÁ,ANA,-3.2281,-56.5861,1986/01/22,2019/06/30,34,2.3,23,32.4
MAUÉS,00357000,2,16,MAUÉS,AMAZONAS,INMET,-3.55,-57.6833,1926/01/01,1937/12/31,12,18.7,6,50.0
MAUÉS,00357001,2,16,MAUÉS,AMAZONAS,ANA,-3.4006,-57.7156,1980/05/29,2019/06/30,40,6.4,18,55.0
VERA CRUZ,00357002,2,16,MAUÉS,AMAZONAS,ANA,-3.8167,-57.1833,1982/04/20,1995/03/31,14,13.1,0,100.0
MUCAJÁ,00357003,2,16,MAUÉS,AMAZONAS,ANA,-3.8967,-57.5042,1989/02/23,2019/06/30,31,1.4,18,41.9
MENINO DEUS,00357004,2,16,MAUÉS,AMAZONAS,ANA,-3.7728,-57.3031,1995/05/03,2019/06/30,25,1.6,18,28.0
ITACOATIARA,00358000,2,16,ITACOATIARA,AMAZONAS,INMET,-3.1375,-58.4431,1961/02/01,1998/09/30,38,40.5,9,76.3
BALSA DO RIO URUBÚ,00358002,2,16,ITACOATIARA,AMAZONAS,ANA,-2.9131,-59.0433,1977/11/26,2019/04/30,43,3.4,27,37.2
OSÓRIO FONSECA,00358003,2,16,NOVA OLINDA DO NORT,AMAZONAS,ANA,-3.8167,-58.2861,1982/04/18,2019/06/30,38,2.9,20,47.4
IRACEMA,00358004,2,15,ITACOATIARA,AMAZONAS,ANA,-3.3167,-58.8108,2014/11/01,2019/06/20,6,0.0,4,33.3
NOVA OLINDA DO NORTE,00359001,2,15,NOVA OLINDA DO NORT,AMAZONAS,ANA,-3.8847,-59.0897,1980/07/01,2019/10/31,40,7.9,25,37.5
FAZENDA IRANDUBA,00359002,2,16,ITACOATIARA,AMAZONAS,ANA,-3.2167,-59.0,1982/04/23,1983/01/31,2,0.0,0,100.0
AUTAZES,00359004,2,15,AUTAZES,AMAZONAS,ANA,-3.5764,-59.1339,1995/03/14,2019/10/31,25,1.6,17,32.0
CPRM - SUREG/MA,00359005,2,14,MANAUS,AMAZONAS,ANA,-3.1,-59.9944,1997/07/01,2019/09/30,23,7.2,14,39.1
BIF/MA-BOMBEIROS,00359007,2,14,MANAUS,AMAZONAS,ANA,-3.105,-59.9564,2007/03/01,2016/05/31,10,1.5,5,50.0
COMUNIDADE BOM SUCESSO,00359008,2,15,MANAUS,AMAZONAS,ANA,-3.1306,-59.4392,2014/11/01,2019/08/31,6,0.0,4,33.3
MANAUS,00360000,2,14,MANAUS,AMAZONAS,INMET,-3.1167,-59.95,1961/01/01,2019/06/30,59,1.6,49,16.9
MANACAPURU,00360001,2,14,MANACAPURU,AMAZONAS,ANA,-3.3083,-60.6094,1972/06/29,2019/09/30,48,7.3,30,37.5
BELA VISTA,00360002,2,14,MANACAPURU,AMAZONAS,INMET,-3.3,-60.5,1958/04/01,1960/12/31,3,3.1,1,66.7
RESERVA FLORESTAL DUCKE - INPA,00360003,2,14,MANAUS,AMAZONAS,OUTRAS,-3.1333,-60.0333,1978/01/01,1987/12/31,10,0.4,6,40.0
COMUNIDADE SÃO JOÃO,00360005,2,14,MANAUS,AMAZONAS,ANA,-3.0472,-60.2558,2003/11/01,2019/08/31,17,0.1,13,23.5
IRANDUBA,00360006,2,14,IRANDUBA,AMAZONAS,ANA,-3.2681,-60.2156,2014/10/01,2019/10/31,6,3.3,3,50.0
BERURI,00361000,2,13,MANACAPURU,AMAZONAS,ANA,-3.8978,-61.3747,1980/07/04,2019/09/30,40,0.9,33,17.5
CAAPIRANGA,00361001,2,14,CODAJÁS,AMAZONAS,ANA,-3.3297,-61.2133,1982/06/29,2019/09/30,38,1.3,26,31.6
ANAMÃ,00361002,2,14,ANAMÃ,AMAZONAS,ANA,-3.5811,-61.3783,1994/09/02,2015/02/20,22,8.0,10,54.5
CODAJÁS,00362000,2,13,CODAJÁS,AMAZONAS,ANA,-3.8167,-62.0833,1977/11/23,1980/06/30,4,0.0,2,50.0
CODAJÁS,00362001,2,13,CODAJÁS,AMAZONAS,INMET,-3.8333,-62.0833,1976/09/02,1986/12/31,11,14.3,6,45.5
BADAJÓS,00362002,2,13,CODAJÁS,AMAZONAS,ANA,-3.4183,-62.6786,1982/06/04,2019/12/31,38,5.6,24,36.8
BARRO ALTO - SÂO RAIMUNDO DO IPIXUNA,00363000,2,12,COARI,AMAZONAS,ANA,-3.875,-63.7858,1980/11/30,2019/12/31,40,9.5,22,45.0
FAZENDA CANAVIAL,00363001,2,13,COARI,AMAZONAS,ANA,-3.35,-63.6167,1982/06/06,1983/12/31,2,15.7,0,100.0
LIBERDADE,00363002,2,13,CODAJÁS,AMAZONAS,ANA,-3.4564,-63.3922,2000/02/18,2019/12/31,20,2.1,11,45.0
TEFÉ,00364000,2,12,TEFÉ,AMAZONAS,INMET,-3.3667,-64.7,1970/02/01,2019/12/31,50,64.0,14,72.0
JUTICA,00364001,2,12,TEFÉ,AMAZONAS,ANA,-3.5903,-64.3069,1992/05/31,2019/12/31,28,5.5,17,39.3
LARANJAL,00364002,2,12,ALVARÃES,AMAZONAS,ANA,-3.24,-64.775,2004/02/01,2019/12/31,16,5.2,9,43.8
TEFÉ - MISSÕES,00364004,2,12,TEFÉ,AMAZONAS,ANA,-3.3758,-64.6547,2016/03/06,2017/12/31,2,0.0,1,50.0
FORTE DAS GRAÇAS,00366000,2,12,JURUÁ,AMAZONAS,ANA,-3.6414,-66.1031,1977/12/02,2019/11/30,43,4.0,31,27.9
MARTÍRIO,00366001,2,12,JURUÁ,AMAZONAS,ANA,-2.9811,-65.9419,1992/08/01,2019/11/30,28,10.4,10,64.3
SANTO ANTÔNIO DO IÇÁ,00367000,2,11,SANTO ANTÔNIO DO IÇ,AMAZONAS,ANA,-3.1017,-67.9356,1972/06/13,2019/11/30,48,2.5,34,29.2
PORTO SEGURO,00367001,2,12,JUTAÍ,AMAZONAS,ANA,-3.3372,-67.4889,1992/11/08,2019/12/31,28,2.3,19,32.1
SÃO PAULO DE OLIVENÇA,00368000,2,11,SÃO PAULO DE OLIVEN,AMAZONAS,INMET,-3.4667,-68.8,1958/01/01,2009/12/31,52,79.8,0,100.0
SÃO PAULO DE OLIVENÇA,00368001,2,11,SÃO PAULO DE OLIVEN,AMAZONAS,ANA,-3.4569,-68.9119,1972/06/04,2019/11/30,48,1.3,31,35.4
SANTA RITA DO WEIL,00369000,2,11,SÃO PAULO DE OLIVEN,AMAZONAS,ANA,-3.5731,-69.3708,1982/08/08,2019/11/30,38,4.8,18,52.6
ARACATI,00437000,2,36,ARACATI,CEARÁ,FUNCEME-CE,-4.5667,-37.7667,1912/06/01,2020/02/29,109,15.9,87,20.2
AROEIRAS,00437001,2,36,ARACATI,CEARÁ,SUDENE,-4.5667,-37.9833,1962/01/01,2000/12/31,39,14.8,29,25.6
FAZENDA JEQUI,00437002,2,36,JAGUARUANA,CEARÁ,DNOCS,-4.7667,-37.7667,1941/01/01,1942/12/31,2,0.0,2,0.0
FORTIM,00437003,2,36,ARACATI,CEARÁ,INMET,-4.45,-37.7833,1961/01/01,1983/12/31,23,5.1,15,34.8
FORTIM,00437004,2,36,ARACATI,CEARÁ,SUDENE,-4.45,-37.7833,1961/02/01,1989/04/30,29,3.2,21,27.6
VIEIRA,00437005,2,36,RUSSAS,CEARÁ,SUDENE,-4.9833,-37.8167,1962/01/01,1987/09/30,26,0.3,24,7.7
JAGUARUANA,00437006,2,36,JAGUARUANA,CEARÁ,FUNCEME-CE,-4.8333,-37.7833,1912/01/01,2020/02/29,109,0.1,106,2.8
JAGUARUANA (UNIÃO),00437007,2,36,JAGUARUANA,CEARÁ,INMET,-4.7833,-37.7667,1969/11/01,1984/12/31,16,31.8,4,75.0
MATA FRESCA,00437008,2,37,ARACATI,CEARÁ,DNOCS,-4.8,-37.4,1962/01/01,2008/09/08,47,13.2,37,21.3
PALHANO,00437009,2,36,PALHANO,CEARÁ,FUNCEME-CE,-4.75,-37.9667,1932/02/01,2020/02/29,89,7.5,65,27.0
RUSSAS,00437010,2,36,RUSSAS,CEARÁ,FUNCEME-CE,-4.9333,-37.9667,1962/01/01,2020/02/29,59,0.2,56,5.1
UMBURANAS,00437011,2,36,BEBERIBE,CEARÁ,SUDENE,-4.4667,-37.95,1962/01/01,2001/01/31,40,19.0,29,27.5
AREIA BRANCA,00437012,2,37,AREIA BRANCA,RIO GRANDE DO NORTE,EMPARN,-4.95,-37.1333,1911/01/01,1991/11/30,81,3.7,71,12.3
TIBAU,00437013,2,37,GROSSOS,RIO GRANDE DO NORTE,EMPARN,-4.8333,-37.25,1962/07/01,1991/10/31,30,32.1,10,66.7
ELEVATÓRIO - COGERH,00437014,2,36,ITAIÇABA,CEARÁ,FUNCEME-CE,-4.65,-37.8333,2002/05/01,2020/02/29,19,1.0,14,26.3
SANTA TEREZA,00437015,2,35,ARACATI,CEARÁ,FUNCEME-CE,-4.6,-37.8667,2000/06/21,2018/01/31,19,64.5,5,73.7
MATA FRESCA,00437016,2,35,ARACATI,CEARÁ,FUNCEME-CE,-4.8,-37.4,1998/04/01,2020/02/29,23,17.9,13,43.5
AEROPORTO DE ARACATI,00437017,2,35,ARACATI,CEARÁ,FUNCEME-CE,-4.55,-37.7833,2001/03/01,2020/02/29,20,27.4,10,50.0
PARIPUEIRA,00437018,2,35,BEBERIBE,CEARÁ,FUNCEME-CE,-4.3728,-37.9244,1998/06/01,2020/02/29,23,17.1,14,39.1
FORTIM,00437019,2,35,FORTIM,CEARÁ,FUNCEME-CE,-4.45,-37.7833,1988/01/01,2020/02/29,33,3.4,30,9.1
BARRINHA,00437020,2,36,ICAPUÍ,CEARÁ,FUNCEME-CE,-4.8167,-37.2667,2000/06/01,2020/02/29,21,47.1,7,66.7
PEIXE GORDO,00437021,2,36,ICAPUÍ,CEARÁ,FUNCEME-CE,-4.7833,-37.2667,2000/06/01,2020/02/29,21,4.1,15,28.6
ICAPUI,00437022,2,36,ICAPUÍ,CEARÁ,FUNCEME-CE,-4.7,-37.3667,1986/03/01,2020/02/29,35,6.6,28,20.0
RETIRO GRANDE,00437023,2,36,ICAPUÍ,CEARÁ,FUNCEME-CE,-4.7,-37.5167,2000/01/01,2020/02/29,21,6.6,16,23.8
ITAIÇABA,00437024,2,36,ITAIÇABA,CEARÁ,FUNCEME-CE,-4.6833,-37.8167,1974/01/01,2020/02/29,47,15.4,37,21.3
BORGES,00437025,2,36,JAGUARUANA,CEARÁ,FUNCEME-CE,-4.8833,-37.8667,2000/06/01,2020/02/29,21,21.9,9,57.1
GIQUI,00437026,2,36,JAGUARUANA,CEARÁ,FUNCEME-CE,-4.7667,-37.7667,2000/06/23,2020/02/29,21,31.2,12,42.9
SARGENTO,00437038,2,36,JAGUARUANA,CEARÁ,FUNCEME-CE,-4.8419,-37.8389,2018/01/01,2020/02/29,3,7.7,1,66.7
SÍTIO CAMPO LIMPO,00437039,2,36,RUSSAS,CEARÁ,FUNCEME-CE,-4.9361,-37.885,2018/01/01,2020/02/29,3,0.0,2,33.3
ÁGUA VERDE,00438001,2,35,PACATUBA,CEARÁ,DNOCS,-4.16667,-38.7,1917/01/01,1932/12/31,16,0.0,16,0.0
ANGICOS,00438002,2,35,CASCAVEL,CEARÁ,SUDENE,-4.2167,-38.3333,1962/01/01,2000/12/31,39,12.6,33,15.4
ANTÔNIO DIOGO,00438003,2,35,REDENÇÃO,CEARÁ,DNOCS,-4.31667,-38.75,1922/01/01,2007/12/01,86,57.1,32,62.8
AÇUDE ACARAPÉ DO MEIO,00438005,2,35,REDENÇÃO,CEARÁ,DNOCS,-4.18333,-38.8167,1911/01/01,1999/04/30,89,39.3,50,43.8
AÇUDE SANTO ANTÔNIO DE RUSSAS,00438007,2,36,RUSSAS,CEARÁ,DNOCS,-4.8333,-38.1667,1911/01/01,2000/03/31,90,7.2,80,11.1
AÇUDE RIACHÃO,00438008,2,35,PACATUBA,CEARÁ,DNOCS,-4.06667,-38.5667,1920/12/01,2009/05/25,90,0.5,83,7.8
ARAÇOIABA,00438009,2,35,ARACOIABA,CEARÁ,FUNCEME-CE,-4.3667,-38.8,1941/01/01,2020/02/29,80,11.2,65,18.8
BATURITÉ,00438010,2,35,BATURITÉ,CEARÁ,FUNCEME-CE,-4.3333,-38.8667,1912/01/01,2020/02/29,109,7.5,98,10.1
BAÚ,00438011,2,35,PACATUBA,CEARÁ,ANA,-4.1214,-38.6592,1916/04/01,2019/12/31,104,36.3,59,43.3
CRISTAIS,00438012,2,35,CASCAVEL,CEARÁ,FUNCEME-CE,-4.4833,-38.35,1988/02/01,2020/02/29,33,29.4,20,39.4
BIXOPA,00438013,2,36,LIMOEIRO DO NORTE,CEARÁ,SUDENE,-4.9833,-38.2167,1961/02/01,2000/11/30,40,12.4,30,25.0
BOA ÁGUA,00438014,2,35,MORADA NOVA,CEARÁ,SUDENE,-4.8333,-38.6167,1962/01/01,1998/07/31,37,16.0,30,18.9
BOQUEIRÃO DO CESÁRIO,00438015,2,35,BEBERIBE,CEARÁ,FUNCEME-CE,-4.5833,-38.2167,1962/01/01,2020/02/29,59,18.1,46,22.0
GUANACES,00438016,2,35,CASCAVEL,CEARÁ,FUNCEME-CE,-4.15,-38.3167,2000/06/01,2020/02/29,21,31.6,10,52.4
CAIO PRADO,00438017,2,35,ITAPIUNA,CEARÁ,DNOCS,-4.65,-38.9667,1911/08/01,2000/05/31,90,31.1,54,40.0
PATOS DOS LIBERATOS,00438018,2,35,CHOROZINHO,CEARÁ,FUNCEME-CE,-4.2833,-38.5167,2000/06/01,2020/02/29,21,73.7,2,90.5
CRISTAIS,00438019,2,35,CASCAVEL,CEARÁ,DNOCS,-4.4833,-38.35,1912/01/01,2008/09/10,97,2.9,90,7.2
COLUMINJUBA,00438020,2,35,MARANGUAPE,CEARÁ,DNOCS,-4.0167,-38.8333,1915/11/01,1963/12/31,49,0.0,48,2.0
CHOROZINHO,00438021,2,35,CHOROZINHO,CEARÁ,ANA,-4.3022,-38.4969,1932/01/01,2019/12/31,88,6.4,62,29.5
CRISTAIS,00438022,2,35,CASCAVEL,CEARÁ,ANA,-4.4975,-38.3606,1932/01/01,2019/12/31,88,2.6,80,9.1
CURUPIRA,00438023,2,35,ARACOIABA,CEARÁ,SUDENE,-4.5333,-38.5667,1962/01/01,2001/01/31,40,16.7,22,45.0
DANIEL DE QUEIROS,00438024,2,36,PEREIRO,CEARÁ,FUNCEME-CE,-4.8667,-38.9333,1919/04/01,2008/12/01,90,25.4,56,37.8
FAZENDA SANTA MARIA,00438025,2,36,QUIXADÁ,CEARÁ,DNOCS,-4.9833,-38.8167,1934/01/01,1961/12/31,28,1.5,27,3.6
FEITICEIRO,00438026,2,36,MORADA NOVA,CEARÁ,SUDENE,-4.8667,-38.35,1961/02/01,1994/03/31,34,8.8,27,20.6
GADO,00438027,2,35,PALMÁCIA,CEARÁ,SUDENE,-4.15,-38.9,1962/05/01,2000/09/30,39,22.4,20,48.7
GUAIUBA,00438028,2,35,PACATUBA,CEARÁ,FUNCEME-CE,-4.1539,-38.7258,1916/01/01,2008/05/13,93,40.9,51,45.2
IBICUITINGA,00438030,2,36,MORADA NOVA,CEARÁ,SUDENE,-4.9667,-38.65,1961/02/01,2001/01/31,41,15.6,31,24.4
ITAPEBUSSU,00438031,2,35,MARANGUAPE,CEARÁ,FUNCEME-CE,-4.0167,-38.9333,1962/05/01,2020/02/29,59,16.9,39,33.9
ITAPIUNA,00438032,2,35,ITAPIUNA,CEARÁ,FUNCEME-CE,-4.5833,-38.95,1917/01/01,2020/02/29,104,25.3,74,28.8
ITAPEIM,00438033,2,35,BEBERIBE,CEARÁ,FUNCEME-CE,-4.35,-38.1167,1932/01/01,2008/12/01,77,9.5,63,18.2
JUBAIA,00438034,2,35,MARANGUAPE,CEARÁ,SUDENE,-4.05,-38.7,1962/03/01,2000/11/30,39,14.0,30,23.1
OLHO D'ÁGUA,00438035,2,35,QUIXADÁ,CEARÁ,DNOCS,-4.75,-38.85,1932/02/01,2001/01/31,70,9.4,57,18.6
PACOTI,00438036,2,35,PACOTI,CEARÁ,FUNCEME-CE,-4.2167,-38.9167,1913/10/01,2020/02/29,108,20.0,81,25.0
SÍTIO BICA,00438038,2,35,PALMÁCIA,CEARÁ,FUNCEME-CE,-4.15,-38.85,1922/04/01,2009/01/01,88,36.1,52,40.9
PATOS,00438040,2,35,RUSSAS,CEARÁ,SUDENE,-4.6833,-38.3333,1962/01/01,1999/01/31,38,19.6,29,23.7
PASSAGEM FUNDA,00438041,2,35,ARACOIABA,CEARÁ,SUDENE,-4.5,-38.7833,1962/01/01,1982/02/28,21,26.5,14,33.3
PITOMBEIRAS,00438042,2,35,CASCAVEL,CEARÁ,DNOCS,-4.4333,-38.3333,1918/12/01,2000/05/31,83,47.3,31,62.7
RIACHÃO,00438044,2,35,CAPISTRANO,CEARÁ,DNOCS,-4.5167,-38.95,1912/01/01,1962/12/31,51,62.1,19,62.7
SALVA VIDAS,00438045,2,36,QUIXADÁ,CEARÁ,DNOCS,-4.9667,-38.9167,1926/04/01,2000/07/31,75,10.8,60,20.0
SÃO FRANCISCO,00438046,2,36,QUIXADÁ,CEARÁ,SUDENE,-4.8333,-38.9833,1962/01/01,2007/12/01,46,35.0,26,43.5
TANQUES,00438047,2,35,MARANGUAPE,CEARÁ,SUDENE,-4.08333,-38.7833,1962/03/01,2001/01/31,40,13.9,28,30.0
VÁRZEA DA ONÇA,00438048,2,36,QUIXADÁ,CEARÁ,SUDENE,-4.9833,-38.8833,1962/01/01,2001/02/28,40,24.1,26,35.0
VAZANTES,00438049,2,35,ARACOIABA,CEARÁ,FUNCEME-CE,-4.4167,-38.6833,1932/01/01,2008/12/01,77,21.8,56,27.3
VENEZUELA,00438050,2,35,MULUNGU,CEARÁ,DNOCS,-4.25,-38.9833,1932/01/01,1944/12/31,13,7.7,12,7.7
ACARAPÉ,00438051,2,35,ACARAPÉ,CEARÁ,FUNCEME-CE,-4.2167,-38.7,1912/01/01,2020/02/29,109,3.0,97,11.0
CAPISTRANO,00438053,2,35,CAPISTRANO,CEARÁ,FUNCEME-CE,-4.4667,-38.9,1974/01/01,2020/02/29,47,0.0,46,2.1
VÁRZEA NOVA,00438055,2,35,QUIXADÁ,CEARÁ,DNOCS,-4.75,-38.8667,1932/01/01,1961/05/31,30,2.0,28,6.7
AÇUDE AMANARY,00438056,2,35,MARANGUAPE,CEARÁ,FUNCEME-CE,-4.0167,-38.8833,1983/01/01,2020/02/29,38,71.3,6,84.2
SÍTIO TIMBAUBA MACORE,00438059,2,36,RUSSAS,CEARÁ,FUNCEME-CE,-4.8333,-38.2333,1998/12/01,2020/02/29,23,6.9,17,26.1
CAIO PRADO,00438061,2,35,ITAPIUNA,CEARÁ,ANA,-4.6564,-38.9431,1988/02/01,2019/12/31,32,12.4,26,18.8
VILA PEDRA BRANCA,00438063,2,35,ARACOIABA,CEARÁ,FUNCEME-CE,-4.5,-38.8167,2000/06/12,2008/12/01,9,67.2,2,77.8
BARREIRA,00438064,2,35,BARREIRA,CEARÁ,FUNCEME-CE,-4.2833,-38.6333,1988/01/01,2020/02/29,33,4.4,26,21.2
SÃO JOSÉ,00438065,2,35,BARREIRA,CEARÁ,FUNCEME-CE,-4.2833,-38.6167,2001/01/01,2019/06/30,19,25.0,11,42.1
SERRA DO FÉLIX,00438066,2,35,BEBERIBE,CEARÁ,FUNCEME-CE,-4.5167,-38.1833,1998/06/01,2012/03/31,15,25.6,8,46.7
BEBERIBE,00438067,2,35,BEBERIBE,CEARÁ,FUNCEME-CE,-4.2167,-38.1167,1982/01/01,2020/02/29,39,0.0,38,2.6
LAGOA FUNDA,00438068,2,35,BEBERIBE,CEARÁ,FUNCEME-CE,-4.2667,-38.0333,2000/01/30,2020/02/29,21,3.7,16,23.8
HORIZONTE,00438069,2,35,HORIZONTE,CEARÁ,FUNCEME-CE,-4.1,-38.4833,1988/02/01,2020/02/29,33,4.5,27,18.2
PIRANGI,00438070,2,35,IBARETAMA,CEARÁ,FUNCEME-CE,-4.6833,-38.6833,2000/06/01,2019/04/30,20,65.3,3,85.0
IBARETAMA,00438071,2,35,IBARETAMA,CEARÁ,FUNCEME-CE,-4.8167,-38.8167,1990/01/01,2020/02/29,31,1.2,27,12.9
IBICUITINGA,00438072,2,35,IBICUITINGA,CEARÁ,FUNCEME-CE,-4.9667,-38.6333,1988/01/01,2020/02/29,33,0.1,31,6.1
CAIO PRADO,00438073,2,35,ITAPIUNA,CEARÁ,FUNCEME-CE,-4.65,-38.9333,1911/08/01,2012/03/31,102,12.5,80,21.6
BIXOPA,00438074,2,36,LIMOEIRO DO NORTE,CEARÁ,FUNCEME-CE,-4.9833,-38.2167,1988/02/01,2020/02/29,33,32.9,18,45.5
JUBAIA,00438075,2,36,MARANGUAPE,CEARÁ,FUNCEME-CE,-4.0333,-38.7167,2000/06/01,2020/01/09,21,39.6,9,57.1
TANQUES,00438077,2,36,MARANGUAPE,CEARÁ,FUNCEME-CE,-4.0833,-38.7833,2000/06/01,2020/02/29,21,12.4,11,47.6
LAGOA DO JUVENAL,00438078,2,36,MARANGUAPE,CEARÁ,FUNCEME-CE,-4.0167,-38.95,2000/06/01,2013/07/31,14,2.3,11,21.4
PATOS,00438079,2,35,MORADA NOVA,CEARÁ,FUNCEME-CE,-4.6833,-38.4,1998/05/01,2020/01/31,23,24.2,11,52.2
ARUARU,00438080,2,35,MORADA NOVA,CEARÁ,FUNCEME-CE,-4.5667,-38.35,1988/02/01,2020/02/29,33,41.6,14,57.6
BOA ÁGUA,00438081,2,35,MORADA NOVA,CEARÁ,FUNCEME-CE,-4.7667,-38.5,2000/06/01,2020/02/29,21,20.9,14,33.3
CURUPIRA,00438082,2,35,OCARA,CEARÁ,FUNCEME-CE,-4.5333,-38.55,1997/10/01,2020/02/29,24,21.1,15,37.5
SERRAGEM,00438083,2,35,OCARA,CEARÁ,FUNCEME-CE,-4.45,-38.5,1997/10/01,2020/02/29,24,30.0,14,41.7
OCARA,00438084,2,35,OCARA,CEARÁ,FUNCEME-CE,-4.4833,-38.6,1988/01/01,2020/02/29,33,1.3,27,18.2
SERENO DE CIMA,00438085,2,35,OCARA,CEARÁ,FUNCEME-CE,-4.5167,-38.6167,1997/09/01,2018/07/31,22,24.5,12,45.5
NOVO HORIZONTE,00438086,2,35,OCARA,CEARÁ,FUNCEME-CE,-4.4667,-38.55,1997/09/01,2018/07/31,22,50.0,6,72.7
ARISCO DOS MARIANOS,00438087,2,35,OCARA,CEARÁ,FUNCEME-CE,-4.65,-38.55,1997/10/01,2018/05/31,22,44.4,9,59.1
ITAIPABA,00438088,2,35,PACAJUS,CEARÁ,FUNCEME-CE,-4.1667,-38.5833,2000/06/01,2020/02/29,21,9.1,15,28.6
PINDORETAMA,00438089,2,35,PINDORETAMA,CEARÁ,FUNCEME-CE,-4.05,-38.3333,1988/02/01,2020/02/29,33,3.7,29,12.1
LAGOA GRANDE,00438090,2,36,RUSSAS,CEARÁ,FUNCEME-CE,-4.6833,-38.2,2000/06/01,2020/02/29,21,51.5,6,71.4
PEIXE,00438091,2,36,RUSSAS,CEARÁ,FUNCEME-CE,-4.9167,-38.0833,2000/06/01,2020/02/29,21,4.0,14,33.3
SÍTIO TIMBAUBA,00438092,2,36,RUSSAS,CEARÁ,FUNCEME-CE,-4.8333,-38.2333,1998/12/01,2009/05/26,12,0.0,10,16.7
CAPIM GROSSO,00438093,2,36,RUSSAS,CEARÁ,FUNCEME-CE,-4.8667,-38.2167,1998/05/01,2020/02/29,23,4.2,17,26.1
STO. ANTÔNIO DE RUSSAS,00438094,2,36,RUSSAS,CEARÁ,FUNCEME-CE,-4.8333,-38.1667,1988/01/23,2014/04/30,27,66.5,5,81.5
REDENÇÃO,00438095,2,35,REDENÇÃO,CEARÁ,FUNCEME-CE,-4.22,-38.73,1978/01/01,2020/02/29,43,7.7,36,16.3
IDEAL,00438096,2,35,ARACOIABA,CEARÁ,ANA,-4.4247,-38.6733,2004/08/22,2019/12/31,16,0.0,15,6.2
ARRAIAL,00438097,2,35,ARACOIABA,CEARÁ,ANA,-4.3789,-38.8069,2004/08/20,2019/12/31,16,0.5,14,12.5
SÍTIO ÁGUA FRIA,00438098,2,36,MORADA NOVA,CEARÁ,ANA,-4.87,-38.3967,2004/12/01,2019/12/31,16,0.0,15,6.2
ITAPEIM,00438099,2,35,BEBERIBE,CEARÁ,ANA,-4.3556,-38.1167,2004/12/06,2019/12/31,16,0.5,14,12.5
GUARAMIRANGA,00438100,2,35,GUARAMIRANGA,CEARÁ,FUNCEME-CE,-4.2667,-38.9333,1974/01/01,2019/12/31,46,0.6,42,8.7
PACAJUS,00438101,2,35,PACAJUS,CEARÁ,FUNCEME-CE,-4.1833,-38.4667,1974/01/01,2020/02/29,47,0.2,45,4.3
IDEAL,00438102,2,35,ARACOIABA,CEARÁ,DNOS,-4.4167,-38.6667,1988/02/01,1998/04/30,11,31.8,6,45.5
CHOROZINHO,00438103,2,35,CHOROZINHO,CEARÁ,FUNCEME-CE,-4.3,-38.5,1988/01/01,2020/02/29,33,1.6,28,15.2
CAPONGA,00438104,2,35,CASCAVEL,CEARÁ,FUNCEME-CE,-4.0333,-38.1833,1998/06/01,2008/12/01,11,96.6,0,100.0
FAZENDA NITEROI,00438105,2,35,IBARETAMA,CEARÁ,FUNCEME-CE,-4.8667,-38.85,2002/01/01,2020/02/29,19,7.8,15,21.1
SÍTIO FORQUILHA -  COGERH,00438106,2,35,BEBERIBE,CEARÁ,FUNCEME-CE,-4.5833,-38.0333,2002/01/01,2020/02/29,19,12.5,12,36.8
FAZENDA NOVA CIOMA,00438107,2,35,OCARA,CEARÁ,FUNCEME-CE,-4.4925,-38.5556,2003/01/01,2008/12/01,6,56.0,2,66.7
ÁGUA VERDE,00438108,2,35,GUAIUBA,CEARÁ,FUNCEME-CE,-5.65,-38.67,2004/07/01,2008/12/01,5,82.0,0,100.0
LAGOA DA SERRA,00438109,2,36,MORADA NOVA,CEARÁ,FUNCEME-CE,-4.9808,-38.3353,2005/01/01,2020/02/29,16,4.6,12,25.0
CASCAVEL,00438110,2,35,CASCAVEL,CEARÁ,FUNCEME-CE,-4.1333,-38.2333,1977/01/01,2020/02/29,44,4.5,40,9.1
GUAIUBA,00438111,2,35,GUAIUBA,CEARÁ,FUNCEME-CE,-4.03,-38.63,1974/01/01,2020/02/29,47,1.6,44,6.4
ANTÔNIO DIOGO,00438112,2,35,REDENÇÃO,CEARÁ,FUNCEME-CE,-4.3167,-38.75,1983/01/01,2008/12/01,26,95.7,0,100.0
CARRAPATEIRA,00438113,2,35,GUAIUBA,CEARÁ,FUNCEME-CE,-4.1539,-38.7258,2002/12/01,2020/02/29,19,37.7,5,73.7
PALMÁCIA,00438114,2,35,PALMÁCIA,CEARÁ,FUNCEME-CE,-4.15,-38.8333,1979/01/01,2020/02/29,42,0.9,38,9.5
IDEAL,00438115,2,35,ARACOIABA,CEARÁ,FUNCEME-CE,-4.4167,-38.6667,1988/02/01,2013/04/30,26,56.0,7,73.1
SÍTIO LIVRAMENTO,00438116,2,35,REDENÇÃO,CEARÁ,FUNCEME-CE,-4.2167,-38.7167,1990/04/11,2008/12/01,19,97.1,0,100.0
DANIEL DE QUEIROZ,00438117,2,36,QUIXADÁ,CEARÁ,FUNCEME-CE,-4.8333,-38.9833,1973/05/01,2008/12/01,36,84.0,3,91.7
FURNAS,00438118,2,36,ARACOIABA,CEARÁ,FUNCEME-CE,-4.55,-38.67,2002/01/01,2020/02/29,19,48.7,8,57.9
IDEAL,00438119,2,35,ARACOIABA,CEARÁ,FUNCEME-CE,-4.3167,-38.6833,2000/06/01,2008/12/01,9,48.4,3,66.7
EIXÃO 2,00438120,2,36,MORADA NOVA,CEARÁ,FUNCEME-CE,-4.9653,-38.25,2012/01/01,2020/02/06,9,61.6,1,88.9
AÇUDE ACARAPÉ DO MEIO,00438121,2,35,REDENÇÃO,CEARÁ,FUNCEME-CE,-4.1947,-38.7997,2014/12/01,2020/02/29,7,0.9,3,57.1
CHACARA PEDRO HENRIQUE,00438122,2,35,PALMÁCIA,CEARÁ,FUNCEME-CE,-4.1486,-38.8419,2014/09/01,2017/12/31,4,0.0,3,25.0
SÍTIO PILÕES,00438123,2,35,PACOTI,CEARÁ,FUNCEME-CE,-4.1797,-38.9378,2018/01/01,2020/02/22,3,4.0,1,66.7
URUAU CARRAPICHO,00438124,2,35,BEBERIBE,CEARÁ,FUNCEME-CE,-4.2261,-38.09,2015/03/01,2020/02/29,6,11.7,2,66.7
AÇUDE BATENTE,00438126,2,35,OCARA,CEARÁ,FUNCEME-CE,-4.6458,-38.4911,2017/04/01,2020/02/29,4,0.0,2,50.0
BOTIJA,00438127,2,35,GUARAMIRANGA,CEARÁ,FUNCEME-CE,-4.2472,-38.9414,2017/01/01,2020/02/29,4,28.9,1,75.0
CORREGO ESPERANÇA,00438128,2,36,PALHANO,CEARÁ,FUNCEME-CE,-4.6694,-38.0911,2017/07/01,2019/12/31,3,3.4,1,66.7
FAZENDA BOA VISTA,00438129,2,36,ITAPIUNA,CEARÁ,FUNCEME-CE,-4.5369,-38.9147,2017/12/01,2020/02/29,4,0.0,2,50.0
QUIXADÁ,00439000,2,36,QUIXADÁ,CEARÁ,INMET,-4.9667,-39.0167,1961/01/01,1966/04/30,6,12.7,1,83.3
QUIXADÁ,00439001,2,36,QUIXADÁ,CEARÁ,FUNCEME-CE,-4.9667,-39.0333,1912/01/01,2020/02/29,109,21.6,80,26.6
IBUAÇU,00439002,2,36,BOA VIAGEM,CEARÁ,SUDENE,-4.75,-39.8,1962/01/01,1991/05/31,30,3.4,27,10.0
PARAMOTI,00439003,2,35,PARAMOTI,CEARÁ,FUNCEME-CE,-4.0833,-39.25,1935/02/01,2020/02/29,86,2.3,78,9.3
FAZENDA CAJAZEIRA,00439004,2,36,QUIXERAMOBIM,CEARÁ,DNOCS,-4.8011,-39.6142,1961/02/01,1991/12/31,31,0.8,27,12.9
SALVAÇÃO,00439005,2,35,PARAMOTI,CEARÁ,DNOCS,-4.25,-39.4833,1935/02/01,1985/04/30,51,5.0,44,13.7
CARIDADE,00439006,2,35,CARIDADE,CEARÁ,FUNCEME-CE,-4.2333,-39.1833,1912/01/01,2020/02/29,109,31.1,71,34.9
MULUNGU,00439008,2,35,MULUNGU,CEARÁ,FUNCEME-CE,-4.3,-38.9833,1916/05/01,2020/02/29,105,8.0,87,17.1
AÇUDE GENERAL SAMPAIO,00439009,2,35,GENERAL SAMPAIO,CEARÁ,FUNCEME-CE,-4.0667,-39.4667,1921/01/01,2020/01/31,100,26.4,65,35.0
PARAFUSO,00439010,2,35,CANINDÉ,CEARÁ,DNOCS,-4.2667,-39.65,1935/02/01,1990/05/31,56,7.6,44,21.4
SÃO JOSÉ DA MACAOCA,00439011,2,36,QUIXERAMOBIM,CEARÁ,SUDENE,-4.7,-39.4667,1961/02/01,1999/05/31,39,13.3,27,30.8
LAGOA DO MATO,00439012,2,36,ITATIRA,CEARÁ,DNOCS,-4.6667,-39.6167,1935/01/01,1998/04/30,64,30.5,39,39.1
UBIRAÇU,00439013,2,35,CANINDÉ,CEARÁ,FUNCEME-CE,-4.4167,-39.6167,1935/01/01,2014/06/30,80,18.1,62,22.5
SANTA ROSA,00439014,2,35,SANTA QUITÉRIA,CEARÁ,DNOCS,-4.3,-39.8833,1934/01/01,1976/06/30,43,45.5,20,53.5
AÇUDE SALÃO,00439015,2,35,CANINDÉ,CEARÁ,DNOCS,-4.4167,-39.3167,1916/06/01,2007/12/01,92,21.4,66,28.3
AÇUDE ALTO ALEGRE,00439016,2,35,CARIDADE,CEARÁ,DNOCS,-4.0833,-39.0333,1920/12/01,1999/05/31,80,54.2,32,60.0
FORMOSA,00439017,2,35,PENTECOSTE,CEARÁ,DNOCS,-4.0333,-39.0167,1921/02/01,2000/05/31,80,51.9,35,56.2
ARATUBA,00439018,2,35,ARATUBA,CEARÁ,FUNCEME-CE,-4.4167,-39.05,1935/01/01,2020/02/29,86,0.3,82,4.7
TEJUÇUOCA,00439019,2,35,ITAPAJÉ,CEARÁ,DNOCS,-4.0333,-39.5167,1935/02/01,2001/01/31,67,9.1,56,16.4
AÇUDE CEDRO,00439020,2,36,QUIXADÁ,CEARÁ,FUNCEME-CE,-4.9833,-39.0667,1911/01/01,2020/02/29,110,16.0,85,22.7
AÇUDE SANTA MARIA,00439021,2,35,SOBRAL,CEARÁ,DNOCS,-4.0833,-39.9333,1920/06/01,1989/08/31,70,38.6,38,45.7
CUSTÓDIO,00439022,2,36,QUIXADÁ,CEARÁ,FUNCEME-CE,-4.9833,-39.1667,1933/06/01,2004/12/31,72,10.1,59,18.1
JACAMPARI,00439023,2,36,BOA VIAGEM,CEARÁ,DNOCS,-4.7167,-39.9333,1926/05/01,2000/12/31,75,12.6,60,20.0
FAZENDA FEIJÃO,00439024,2,35,QUIXADÁ,CEARÁ,DNOCS,-4.5667,-39.1667,1917/01/01,1991/03/31,75,29.4,44,41.3
AÇUDE POMPEU SOBRINHO,00439025,2,35,QUIXADÁ,CEARÁ,DNOCS,-4.8,-39.1167,1932/01/01,2008/12/01,77,19.9,56,27.3
OLHO D'ÁGUA DOS CARMEIROS,00439026,2,36,QUIXERAMOBIM,CEARÁ,SUDENE,-4.7333,-39.7,1962/01/01,1976/06/30,15,1.7,13,13.3
QUEIMADAS,00439027,2,36,QUIXADÁ,CEARÁ,DNOCS,-4.8833,-39.1833,1941/01/01,1991/12/31,51,21.9,25,51.0
FAZENDA MONTE ALEGRE,00439028,2,36,QUIXERAMOBIM,CEARÁ,DNOCS,-4.8833,-39.3833,1962/01/01,2000/01/31,39,13.8,29,25.6
ITATIRA,00439029,2,36,ITATIRA,CEARÁ,DNOCS,-4.5167,-39.6167,1912/10/01,1972/06/30,61,24.3,36,41.0
ITATIRA,00439030,2,36,ITATIRA,CEARÁ,FUNCEME-CE,-4.5333,-39.6167,1912/10/01,2020/02/29,109,13.0,84,22.9
GENERAL SAMPAIO,00439031,2,35,GENERAL SAMPAIO,CEARÁ,FUNCEME-CE,-4.05,-39.45,1977/09/01,2020/02/29,44,8.1,35,20.5
DOM MAURÍCIO,00439036,2,35,QUIXADÁ,CEARÁ,FUNCEME-CE,-4.92,-39.15,1913/04/01,2020/02/29,108,21.9,72,33.3
TAPERUABA,00439037,2,35,SOBRAL,CEARÁ,DNOCS,-4.0667,-39.9333,1948/01/01,1963/08/31,16,2.7,10,37.5
AÇUDE SÃO MATEUS,00439038,2,35,CANINDÉ,CEARÁ,DNOS,-4.3667,-39.3167,1912/01/01,1931/12/31,20,0.0,20,0.0
GUARAMIRANGA,00439040,2,35,GUARAMIRANGA,CEARÁ,INMET,-4.4667,-38.95,1961/01/01,1985/12/31,25,27.8,14,44.0
AÇUDE SÃO MATEUS,00439041,2,35,CANINDÉ,CEARÁ,FUNCEME-CE,-4.3667,-39.3167,1991/05/01,2016/06/30,26,24.1,16,38.5
PAI JOÃO,00439042,2,35,ARATUBA,CEARÁ,FUNCEME-CE,-4.4333,-39.0667,2000/01/01,2018/06/30,19,57.1,6,68.4
JACAMPARI,00439043,2,35,BOA VIAGEM,CEARÁ,FUNCEME-CE,-4.7667,-39.9167,2000/07/01,2018/07/31,19,66.1,5,73.7
ÁGUAS BELAS,00439044,2,35,BOA VIAGEM,CEARÁ,FUNCEME-CE,-4.8667,-39.9,2000/11/19,2013/09/30,14,45.7,4,71.4
IBUAÇU,00439045,2,35,BOA VIAGEM,CEARÁ,FUNCEME-CE,-4.8167,-39.7833,1983/01/01,2020/02/29,38,57.8,10,73.7
TARGINOS,00439046,2,35,CANINDÉ,CEARÁ,FUNCEME-CE,-4.6333,-39.2333,2000/06/01,2014/03/31,15,54.7,4,73.3
SALITRE,00439047,2,35,CANINDÉ,CEARÁ,FUNCEME-CE,-4.2,-39.7167,2000/06/01,2019/05/31,20,70.3,3,85.0
BONITO,00439048,2,35,CANINDÉ,CEARÁ,FUNCEME-CE,-4.4,-39.46,2000/06/01,2013/05/31,14,63.6,3,78.6
ESPERANÇA,00439049,2,35,CANINDÉ,CEARÁ,FUNCEME-CE,-4.7,-39.3167,2000/06/01,2020/02/29,21,7.4,13,38.1
FAZENDA CAXINOA,00439050,2,35,CANINDÉ,CEARÁ,FUNCEME-CE,-4.2833,-39.2833,1983/01/01,2008/12/01,26,84.1,4,84.6
SÃO DOMINGOS,00439051,2,35,CARIDADE,CEARÁ,FUNCEME-CE,-4.2333,-39.2667,2000/03/01,2019/05/31,20,39.3,9,55.0
INHUPORANGA,00439052,2,35,CARIDADE,CEARÁ,FUNCEME-CE,-4.0833,-39.05,1983/01/01,2020/02/29,38,58.7,10,73.7
FAZENDA ALTO VERMELHO,00439053,2,35,CARIDADE,CEARÁ,FUNCEME-CE,-4.1333,-39.15,2001/01/01,2008/12/01,8,36.2,5,37.5
CHORO,00439054,2,35,CHORO,CEARÁ,FUNCEME-CE,-4.85,-39.2667,1990/01/01,2020/02/29,31,0.7,26,16.1
CAICARINHA,00439055,2,35,CHORO,CEARÁ,FUNCEME-CE,-4.6667,-39.25,2000/06/01,2020/02/29,21,49.8,4,81.0
FAZENDA MORADA NOVA,00439056,2,35,GENERAL SAMPAIO,CEARÁ,FUNCEME-CE,-4.0167,-39.4333,1988/02/02,2012/03/31,25,7.3,21,16.0
JUREMA,00439057,2,35,GENERAL SAMPAIO,CEARÁ,FUNCEME-CE,-4.0667,-39.4667,1998/12/01,2020/02/29,23,29.5,10,56.5
PALMATÓRIA,00439058,2,36,ITAPIUNA,CEARÁ,FUNCEME-CE,-4.55,-39.0,1998/07/01,2014/03/31,17,6.6,11,35.3
CACHOEIRA,00439059,2,36,ITATIRA,CEARÁ,FUNCEME-CE,-4.69,-39.52,2000/06/01,2020/02/29,21,35.1,11,47.6
BANDEIRA,00439060,2,36,ITATIRA,CEARÁ,FUNCEME-CE,-4.61,-39.65,2000/06/01,2019/11/30,20,13.4,14,30.0
LAGOA DO MATO,00439061,2,36,ITATIRA,CEARÁ,FUNCEME-CE,-4.65,-39.6667,1978/03/01,2020/02/29,43,24.6,29,32.6
MACAOCA,00439062,2,36,MADALENA,CEARÁ,FUNCEME-CE,-4.76,-39.48,1998/07/01,2012/03/31,15,16.1,10,33.3
MADALENA,00439063,2,36,MADALENA,CEARÁ,FUNCEME-CE,-4.85,-39.5667,1988/01/01,2020/02/29,33,2.4,28,15.2
FAZENDA VÁRZEA ALEGRE,00439064,2,36,MADALENA,CEARÁ,FUNCEME-CE,-4.9167,-39.3833,2001/01/01,2020/02/29,20,22.8,11,45.0
NOSSA SENHORA DO LIVRAMENTO,00439065,2,36,MONSENHOR TABOSA,CEARÁ,FUNCEME-CE,-4.9667,-39.9667,1998/07/01,2020/02/19,23,39.3,9,60.9
ÁGUA BOA,00439066,2,35,PARAMOTI,CEARÁ,FUNCEME-CE,-4.1167,-39.3,1983/01/01,2008/12/01,26,70.1,6,76.9
CUSTÓDIO,00439067,2,36,QUIXADÁ,CEARÁ,FUNCEME-CE,-4.9828,-39.1669,2000/10/01,2020/02/29,21,31.4,10,52.4
SANTA RITA DOS GALDINOS,00439068,2,35,SANTA QUITÉRIA,CEARÁ,FUNCEME-CE,-4.3167,-39.8167,1998/07/01,2020/02/29,23,18.5,11,52.2
MURIBECA,00439069,2,35,SANTA QUITÉRIA,CEARÁ,FUNCEME-CE,-4.4167,-39.9,2001/01/01,2008/12/01,8,65.2,2,75.0
ITATAIA,00439070,2,35,SANTA QUITÉRIA,CEARÁ,FUNCEME-CE,-4.5667,-39.7833,2000/12/01,2008/12/01,9,55.6,2,77.8
TAPERUABA,00439071,2,35,SOBRAL,CEARÁ,FUNCEME-CE,-4.0833,-39.95,1997/10/01,2020/02/29,24,19.2,13,45.8
CANINDÉ,00439072,2,35,CANINDÉ,CEARÁ,FUNCEME-CE,-4.35,-39.3,1974/01/01,2012/03/31,39,6.1,34,12.8
GUIA,00439073,2,35,BOA VIAGEM,CEARÁ,FUNCEME-CE,-4.91,-39.81,2004/11/25,2016/03/31,13,37.0,4,69.2
MACAOCA,00439074,2,36,QUIXERAMOBIM,CEARÁ,FUNCEME-CE,-4.75,-39.4833,1988/02/01,2008/12/01,21,97.6,0,100.0
AÇUDE SALÃO,00439075,2,35,CANINDÉ,CEARÁ,FUNCEME-CE,-4.4167,-39.3167,1988/02/06,2007/12/01,20,88.5,1,95.0
FAZENDA CAJAZEIRA,00439076,2,36,MADALENA,CEARÁ,FUNCEME-CE,-4.8011,-39.6142,2006/01/01,2020/02/29,15,49.4,3,80.0
PAU FERRO,00439077,2,36,MADALENA,CEARÁ,FUNCEME-CE,-4.9933,-39.4822,2006/06/01,2012/03/31,7,57.3,1,85.7
AÇUDE POMPEU SOBRINHO,00439078,2,35,QUIXADÁ,CEARÁ,FUNCEME-CE,-4.8,-39.1167,1988/02/06,2018/08/31,31,92.5,0,100.0
SÃO BERNARDO,00439079,2,35,CANINDÉ,CEARÁ,FUNCEME-CE,-4.4008,-39.3508,2010/01/01,2020/02/29,11,41.8,4,63.6
IFCE QUIXADA,00439080,2,36,QUIXADÁ,CEARÁ,FUNCEME-CE,-4.9783,-39.0583,2012/04/01,2020/02/29,9,12.6,4,55.6
SÍTIO FERNANDES,00439081,2,35,ARATUBA,CEARÁ,FUNCEME-CE,-4.4053,-39.0692,2015/01/01,2020/02/29,6,32.1,2,66.7
SALGADINHO,00439082,2,36,MADALENA,CEARÁ,FUNCEME-CE,-4.8069,-39.5458,2016/01/01,2017/05/23,2,57.8,0,100.0
AÇUDE PIRABIBU,00439083,2,36,QUIXERAMOBIM,CEARÁ,FUNCEME-CE,-4.9808,-39.3644,2004/11/25,2020/02/29,17,55.1,6,64.7
JUREMA,00439084,2,35,PARAMOTI,CEARÁ,FUNCEME-CE,-4.1686,-39.4572,2018/01/01,2020/02/29,3,0.0,2,33.3
ASSENTAMENTO PAPEL,00439085,2,35,PARAMOTI,CEARÁ,FUNCEME-CE,-4.1967,-39.5614,2018/01/01,2020/02/29,3,23.3,1,66.7
BAIXA FRIA,00439086,2,35,CANINDÉ,CEARÁ,FUNCEME-CE,-4.5269,-39.3789,2012/01/01,2020/02/29,9,29.0,4,55.6
SACO DO BELÉM,00439087,2,35,SANTA QUITÉRIA,CEARÁ,FUNCEME-CE,-4.4297,-39.795,2008/12/01,2020/02/29,13,9.8,7,46.2
RERIUTABA,00440000,2,35,RERIUTABA,CEARÁ,FUNCEME-CE,-4.15,-40.5833,1913/01/01,2020/02/29,108,1.6,103,4.6
SÃO JOSÉ DAS LONTRAS,00440001,2,34,IPUEIRAS,CEARÁ,FUNCEME-CE,-4.55,-40.9667,1934/01/01,2009/05/19,76,54.2,32,57.9
HIDROLÂNDIA,00440002,2,35,HIDROLÂNDIA,CEARÁ,DNOCS,-4.4167,-40.4,1934/02/01,2008/09/30,75,1.9,67,10.7
CURATIS,00440003,2,35,TAMBORIL,CEARÁ,DNOCS,-4.9833,-40.2667,1948/01/01,2001/01/31,54,21.8,31,42.6
CARNAUBAL,00440004,2,34,CARNAUBAL,CEARÁ,FUNCEME-CE,-4.1667,-40.95,1962/01/01,2020/02/29,59,2.6,51,13.6
CROATÁ,00440005,2,34,CROATÁ,CEARÁ,ANA,-4.4164,-40.9042,1962/01/01,2019/12/31,58,1.9,56,3.4
MACARAU,00440006,2,35,SANTA QUITÉRIA,CEARÁ,FUNCEME-CE,-4.1,-40.4333,1962/01/01,2020/01/04,59,42.7,21,64.4
TAMBORIL,00440007,2,35,TAMBORIL,CEARÁ,FUNCEME-CE,-4.8333,-40.3333,1911/01/01,2020/02/29,110,0.8,105,4.5
BOA ESPERANÇA,00440008,2,35,NOVA RUSSAS,CEARÁ,SUDENE,-4.7,-40.2833,1962/01/01,1995/01/31,34,7.8,30,11.8
